gps_seconds[s]	file_name	latitude[deg]	longitude[deg]	altitude_ellipsoidal[m]	roll[deg]	pitch[deg]	heading[deg]	projectedX[m]	projectedY[m]	projectedZ[m]
1271067822.00200	pano_000000_000000	55.7164299	12.5807628	35.381	1.51045	-0.94557	-96.50760	652210.772	1177179.755	-0.659
1271067822.26100	pano_000000_000001	55.7164329	12.5808133	35.432	1.76651	-1.31266	-96.36005	652213.936	1177180.127	-0.608
1271067823.08600	pano_000000_000002	55.7164413	12.5809709	35.699	1.41564	-2.76155	-95.85368	652223.832	1177181.177	-0.341
1271067823.92600	pano_000000_000003	55.7164489	12.5811287	36.214	0.69490	-3.79381	-95.49967	652233.738	1177182.147	0.174
1271067824.79600	pano_000000_000004	55.7164558	12.5812867	36.850	-0.19080	-4.01225	-95.17670	652243.659	1177183.031	0.811
1271067825.70200	pano_000000_000005	55.7164626	12.5814449	37.512	-0.59762	-3.98032	-95.36838	652253.589	1177183.907	1.473
1271067826.67200	pano_000000_000006	55.7164703	12.5816027	38.181	-0.49936	-4.01449	-96.04655	652263.497	1177184.884	2.142
1271067827.71700	pano_000000_000007	55.7164790	12.5817605	38.853	-0.41618	-4.08849	-96.59796	652273.407	1177185.974	2.813
1271067828.77100	pano_000000_000008	55.7164878	12.5819191	39.497	-0.05733	-4.26056	-95.31607	652283.358	1177187.073	3.458
1271067829.78100	pano_000000_000009	55.7164922	12.5820793	40.124	-0.38906	-3.70226	-90.94737	652293.424	1177187.679	4.085
1271067830.82600	pano_000000_000010	55.7164888	12.5822398	40.662	-0.87512	-2.53206	-85.66513	652303.510	1177187.424	4.624
1271067831.95100	pano_000000_000011	55.7164772	12.5823990	41.049	-0.63816	-1.64474	-80.56621	652313.530	1177186.249	5.011
1271067833.14600	pano_000000_000012	55.7164581	12.5825558	41.319	-1.36568	-0.76405	-76.74808	652323.414	1177184.246	5.280
1271067834.90200	pano_000000_000013	55.7164330	12.5827099	41.429	-1.34593	0.37221	-72.06220	652333.131	1177181.566	5.391
1271067842.24300	pano_000000_000014	55.7164002	12.5828586	41.344	-1.57024	0.87171	-67.27311	652342.522	1177178.029	5.306
1271067865.85900	pano_000000_000015	55.7163607	12.5830027	41.182	-1.25934	-0.08541	-62.14604	652351.631	1177173.741	5.145
1271067867.35400	pano_000000_000016	55.7163142	12.5831410	41.051	-0.87212	0.44144	-56.57528	652360.385	1177168.666	5.013
1271067868.83900	pano_000000_000017	55.7162604	12.5832703	40.926	-1.69865	0.86119	-52.42730	652368.578	1177162.770	4.889
1271067870.35000	pano_000000_000018	55.7162022	12.5833928	40.778	-0.98529	0.64299	-47.60001	652376.359	1177156.382	4.741
1271067871.87500	pano_000000_000019	55.7161376	12.5835051	40.635	-1.64784	0.59958	-43.14491	652383.501	1177149.280	4.597
1271067873.30500	pano_000000_000020	55.7160694	12.5836097	40.506	-1.84514	-0.08005	-40.05941	652390.164	1177141.770	4.469
1271067874.67100	pano_000000_000021	55.7159980	12.5837080	40.422	-1.97381	0.15756	-36.92726	652396.441	1177133.894	4.385
1271067875.95100	pano_000000_000022	55.7159237	12.5837998	40.349	-1.26613	0.50633	-33.73293	652402.310	1177125.687	4.311
1271067877.18100	pano_000000_000023	55.7158467	12.5838828	40.300	-1.75574	0.22665	-30.49565	652407.624	1177117.178	4.263
1271067878.66700	pano_000000_000024	55.7157676	12.5839582	40.284	-1.99282	-0.75598	-28.07670	652412.471	1177108.425	4.247
1271067879.93200	pano_000000_000025	55.7156876	12.5840322	40.311	-1.86951	-0.75148	-28.44683	652417.230	1177099.579	4.274
1271067880.98200	pano_000000_000026	55.7156078	12.5841062	40.334	-0.70789	-0.77379	-27.53296	652421.984	1177090.750	4.297
1271067881.91700	pano_000000_000027	55.7155266	12.5841773	40.335	-1.59533	-0.32067	-27.30080	652426.563	1177081.768	4.299
1271067882.80300	pano_000000_000028	55.7154464	12.5842493	40.339	-0.95480	-0.30265	-27.84883	652431.198	1177072.891	4.302
1271067883.67800	pano_000000_000029	55.7153665	12.5843228	40.323	-0.89438	0.31730	-28.44082	652435.923	1177064.049	4.287
1271067884.56800	pano_000000_000030	55.7152870	12.5843973	40.300	-0.64220	-0.06044	-28.42927	652440.709	1177055.251	4.263
1271067885.48800	pano_000000_000031	55.7152067	12.5844710	40.318	-1.01097	0.51952	-27.99384	652445.452	1177046.370	4.282
1271067886.47800	pano_000000_000032	55.7151266	12.5845433	40.282	-1.14272	-0.50667	-27.49904	652450.103	1177037.512	4.245
1271067887.44900	pano_000000_000033	55.7150460	12.5846147	40.304	-1.11705	-0.46882	-27.28705	652454.698	1177028.595	4.267
1271067888.33900	pano_000000_000034	55.7149654	12.5846863	40.285	-1.19905	-0.58475	-27.37270	652459.304	1177019.669	4.249
1271067889.16900	pano_000000_000035	55.7148851	12.5847586	40.317	-0.51406	-0.52824	-27.81264	652463.954	1177010.786	4.281
1271067889.97400	pano_000000_000036	55.7148045	12.5848304	40.294	-1.69476	-0.41667	-27.57889	652468.577	1177001.872	4.258
1271067890.76900	pano_000000_000037	55.7147241	12.5849023	40.341	-1.25058	-0.40821	-27.35480	652473.203	1176992.975	4.305
1271067891.56400	pano_000000_000038	55.7146432	12.5849739	40.339	-1.66731	0.39357	-27.55081	652477.815	1176984.014	4.303
1271067892.36000	pano_000000_000039	55.7145631	12.5850458	40.306	-1.21945	-0.38998	-27.54639	652482.441	1176975.155	4.270
1271067893.16500	pano_000000_000040	55.7144825	12.5851185	40.307	-1.25193	-0.09697	-27.83828	652487.116	1176966.232	4.271
1271067893.96000	pano_000000_000041	55.7144022	12.5851912	40.291	-1.20317	-0.43482	-27.69708	652491.791	1176957.352	4.255
1271067894.74500	pano_000000_000042	55.7143219	12.5852637	40.320	-0.84208	-0.00486	-27.69746	652496.456	1176948.472	4.284
1271067895.52000	pano_000000_000043	55.7142415	12.5853356	40.263	-1.87451	-0.62051	-27.89827	652501.081	1176939.574	4.227
1271067896.28600	pano_000000_000044	55.7141610	12.5854091	40.307	-1.62621	-0.30048	-28.05388	652505.811	1176930.669	4.271
1271067897.03600	pano_000000_000045	55.7140809	12.5854817	40.285	-2.40853	-0.36360	-27.85890	652510.479	1176921.807	4.250
1271067897.78100	pano_000000_000046	55.7140005	12.5855545	40.306	-1.83055	-0.28179	-27.60335	652515.163	1176912.900	4.271
1271067898.52600	pano_000000_000047	55.7139199	12.5856268	40.301	-1.85104	0.30070	-27.66230	652519.817	1176903.992	4.266
1271067899.28100	pano_000000_000048	55.7138395	12.5856988	40.297	-2.08241	-0.24241	-27.63981	652524.448	1176895.091	4.262
1271067900.04600	pano_000000_000049	55.7137591	12.5857711	40.285	-2.37420	-0.08715	-27.80852	652529.098	1176886.189	4.250
1271067900.80700	pano_000000_000050	55.7136788	12.5858435	40.261	-2.44958	-0.11615	-27.85805	652533.759	1176877.304	4.227
1271067901.56200	pano_000000_000051	55.7135986	12.5859169	40.257	-1.83001	-0.46661	-27.99780	652538.477	1176868.432	4.223
1271067902.30200	pano_000000_000052	55.7135185	12.5859901	40.238	-1.45261	-0.69798	-27.95947	652543.189	1176859.577	4.204
1271067903.02200	pano_000000_000053	55.7134380	12.5860633	40.281	-1.04609	-0.48610	-27.65616	652547.896	1176850.669	4.247
1271067903.72700	pano_000000_000054	55.7133576	12.5861352	40.313	-1.32276	-0.13389	-27.42923	652552.525	1176841.766	4.278
1271067904.43200	pano_000000_000055	55.7132765	12.5862061	40.275	-2.84136	0.11679	-27.27016	652557.089	1176832.796	4.241
1271067905.13200	pano_000000_000056	55.7131959	12.5862771	40.319	-2.64839	0.03983	-27.49017	652561.662	1176823.880	4.284
1271067905.83300	pano_000000_000057	55.7131154	12.5863501	40.317	-1.86325	-0.06709	-27.98023	652566.352	1176814.966	4.283
1271067906.52800	pano_000000_000058	55.7130354	12.5864233	40.287	-1.83147	-0.65541	-28.10355	652571.061	1176806.114	4.253
1271067907.22800	pano_000000_000059	55.7129549	12.5864964	40.379	-2.13333	0.56520	-27.90002	652575.767	1176797.207	4.345
1271067907.93800	pano_000000_000060	55.7128744	12.5865690	40.349	-2.15959	0.18764	-27.77659	652580.437	1176788.305	4.315
1271067908.65800	pano_000000_000061	55.7127939	12.5866412	40.334	-2.40653	-0.09774	-27.66816	652585.081	1176779.402	4.300
1271067909.38900	pano_000000_000062	55.7127134	12.5867138	40.358	-1.97981	-0.21326	-27.72014	652589.755	1176770.490	4.324
1271067910.12900	pano_000000_000063	55.7126329	12.5867865	40.346	-1.71487	0.17004	-27.61440	652594.430	1176761.582	4.313
1271067910.87900	pano_000000_000064	55.7125518	12.5868567	40.291	-2.07156	0.36054	-25.20721	652598.951	1176752.609	4.257
1271067911.64400	pano_000000_000065	55.7124688	12.5869201	40.330	-0.96271	-0.51142	-22.17691	652603.047	1176743.415	4.297
1271067912.41400	pano_000000_000066	55.7123843	12.5869768	40.348	-1.62143	-0.16793	-21.75410	652606.723	1176734.057	4.314
1271067913.18400	pano_000000_000067	55.7123003	12.5870352	40.375	-2.34225	-0.08431	-23.38126	652610.510	1176724.741	4.341
1271067913.94400	pano_000000_000068	55.7122177	12.5870984	40.333	-2.01497	0.02186	-25.17529	652614.592	1176715.602	4.300
1271067914.69500	pano_000000_000069	55.7121363	12.5871659	40.269	-2.36424	-0.03963	-26.98370	652618.943	1176706.581	4.235
1271067915.44000	pano_000000_000070	55.7120558	12.5872383	40.224	-2.00652	-0.02317	-28.33217	652623.602	1176697.677	4.190
1271067916.18000	pano_000000_000071	55.7119758	12.5873128	40.176	-1.51854	0.15714	-28.32000	652628.392	1176688.832	4.142
1271067916.92000	pano_000000_000072	55.7118956	12.5873865	40.129	-1.44164	-0.06558	-27.84361	652633.130	1176679.951	4.095
1271067917.66000	pano_000000_000073	55.7118152	12.5874590	40.091	-1.07530	0.38880	-27.62036	652637.795	1176671.057	4.058
1271067918.40000	pano_000000_000074	55.7117350	12.5875310	40.093	-1.09478	-0.06913	-27.75173	652642.433	1176662.182	4.060
1271067919.13600	pano_000000_000075	55.7116546	12.5876033	40.016	-1.69815	0.15610	-27.89242	652647.084	1176653.292	3.983
1271067919.86600	pano_000000_000076	55.7115747	12.5876761	39.992	-1.41986	-0.09539	-28.01740	652651.765	1176644.446	3.959
1271067920.59600	pano_000000_000077	55.7114943	12.5877498	39.971	-1.23001	-0.02259	-28.14578	652656.504	1176635.560	3.938
1271067921.31600	pano_000000_000078	55.7114144	12.5878229	39.935	-1.38302	-0.26004	-27.97373	652661.211	1176626.715	3.902
1271067922.02100	pano_000000_000079	55.7113336	12.5878958	39.901	-1.84649	-0.03388	-27.62397	652665.897	1176617.780	3.869
1271067922.70700	pano_000000_000080	55.7112532	12.5879680	39.907	-1.97719	-0.25735	-28.29401	652670.549	1176608.883	3.875
1271067923.38200	pano_000000_000081	55.7111734	12.5880431	39.894	-1.96693	-0.37857	-29.51379	652675.371	1176600.056	3.861
1271067924.04700	pano_000000_000082	55.7110951	12.5881209	39.881	-1.80445	-0.33173	-30.71132	652680.371	1176591.396	3.848
1271067924.71200	pano_000000_000083	55.7110171	12.5882010	39.917	-0.95057	-0.29343	-30.51036	652685.511	1176582.774	3.885
1271067925.37200	pano_000000_000084	55.7109385	12.5882797	39.890	-1.37294	-0.04277	-30.01534	652690.563	1176574.084	3.858
1271067926.02700	pano_000000_000085	55.7108596	12.5883573	39.883	-1.56046	-0.18516	-29.67506	652695.546	1176565.354	3.851
1271067926.68200	pano_000000_000086	55.7107803	12.5884348	39.878	-1.22390	-0.22668	-29.49695	652700.520	1176556.587	3.846
1271067927.33300	pano_000000_000087	55.7107012	12.5885116	39.853	-1.61621	-0.18015	-29.67995	652705.458	1176547.833	3.821
1271068153.50000	pano_000001_000000	55.7105036	12.5888640	39.940	-1.75374	-0.36597	150.65123	652727.874	1176526.106	3.909
1271068153.91500	pano_000001_000001	55.7105435	12.5888251	39.948	-1.27125	-0.21518	150.68458	652725.376	1176530.525	3.917
1271068154.73000	pano_000001_000002	55.7106226	12.5887488	39.935	-1.68915	-0.29067	150.34571	652720.472	1176539.269	3.904
1271068155.54000	pano_000001_000003	55.7107015	12.5886714	39.937	-1.61057	-0.22712	150.29196	652715.502	1176547.993	3.906
1271068156.34500	pano_000001_000004	55.7107804	12.5885938	39.943	-1.46766	-0.01192	150.20817	652710.514	1176556.717	3.912
1271068157.14000	pano_000001_000005	55.7108592	12.5885168	39.925	-2.12629	-0.40180	150.15878	652705.571	1176565.434	3.894
1271068157.93000	pano_000001_000006	55.7109377	12.5884386	39.953	-1.24022	-0.15774	149.95710	652700.551	1176574.113	3.921
1271068158.73100	pano_000001_000007	55.7110165	12.5883605	39.950	-1.75434	-0.28321	149.85667	652695.535	1176582.831	3.918
1271068159.58100	pano_000001_000008	55.7110953	12.5882820	39.987	-0.93022	0.17528	150.24163	652690.492	1176591.536	3.955
1271068160.49100	pano_000001_000009	55.7111742	12.5882052	39.975	-1.25425	-0.35107	150.66389	652685.561	1176600.264	3.943
1271068161.39600	pano_000001_000010	55.7112537	12.5881300	39.975	-1.31632	-0.42590	151.71034	652680.730	1176609.061	3.943
1271068162.28100	pano_000001_000011	55.7113337	12.5880567	39.986	-1.14048	-0.51443	151.98064	652676.015	1176617.910	3.954
1271068163.14200	pano_000001_000012	55.7114137	12.5879838	40.000	-1.54280	-0.59666	151.64819	652671.320	1176626.763	3.967
1271068163.97700	pano_000001_000013	55.7114936	12.5879096	40.018	-1.76524	-0.46139	151.53369	652666.551	1176635.599	3.985
1271068164.78700	pano_000001_000014	55.7115735	12.5878354	40.052	-1.01157	-0.80191	151.98310	652661.781	1176644.441	4.020
1271068165.57200	pano_000001_000015	55.7116537	12.5877625	40.071	-1.38089	-0.79712	151.97592	652657.088	1176653.310	4.038
1271068166.34200	pano_000001_000016	55.7117338	12.5876891	40.135	-1.03196	-0.43642	152.08200	652652.370	1176662.174	4.103
1271068167.09700	pano_000001_000017	55.7118140	12.5876169	40.113	-1.44982	-0.62372	152.29601	652647.722	1176671.049	4.080
1271068167.84300	pano_000001_000018	55.7118944	12.5875448	40.188	-1.38312	-0.41745	152.52236	652643.082	1176679.941	4.155
1271068168.58800	pano_000001_000019	55.7119750	12.5874730	40.252	-1.00344	-0.14155	152.91099	652638.465	1176688.866	4.219
1271068169.33800	pano_000001_000020	55.7120565	12.5874040	40.245	-2.21679	-0.55254	154.18971	652634.018	1176697.880	4.212
1271068170.09300	pano_000001_000021	55.7121389	12.5873383	40.296	-2.44937	-0.38699	155.99673	652629.774	1176707.001	4.263
1271068170.85300	pano_000001_000022	55.7122217	12.5872776	40.361	-1.77883	-1.38655	158.04382	652625.850	1176716.176	4.328
1271068171.62800	pano_000001_000023	55.7123062	12.5872188	40.506	-0.35413	0.40992	157.74341	652622.041	1176725.545	4.473
1271068172.40400	pano_000001_000024	55.7123895	12.5871587	40.451	-1.76348	0.77421	155.18210	652618.150	1176734.767	4.418
1271068173.17400	pano_000001_000025	55.7124711	12.5870929	40.345	-3.21339	-0.20229	153.61232	652613.907	1176743.799	4.312
1271068173.93400	pano_000001_000026	55.7125517	12.5870223	40.331	-1.66514	-0.09221	152.70626	652609.361	1176752.719	4.297
1271068174.68400	pano_000001_000027	55.7126320	12.5869511	40.333	-1.89220	-0.64901	152.60191	652604.778	1176761.610	4.300
1271068175.42900	pano_000001_000028	55.7127124	12.5868791	40.384	-1.79033	-0.43208	152.23753	652600.143	1176770.509	4.350
1271068176.17000	pano_000001_000029	55.7127930	12.5868068	40.361	-2.40367	-0.35524	152.21788	652595.491	1176779.428	4.327
1271068176.90000	pano_000001_000030	55.7128730	12.5867343	40.387	-1.80083	-0.34431	152.28079	652590.827	1176788.279	4.354
1271068177.62500	pano_000001_000031	55.7129533	12.5866618	40.403	-1.72508	-0.13192	152.03560	652586.162	1176797.162	4.369
1271068178.34500	pano_000001_000032	55.7130339	12.5865891	40.361	-2.95793	0.15821	152.06810	652581.489	1176806.073	4.327
1271068179.06000	pano_000001_000033	55.7131140	12.5865161	40.385	-1.96470	-0.29385	152.35158	652576.790	1176814.944	4.351
1271068179.77000	pano_000001_000034	55.7131946	12.5864441	40.387	-2.19470	-0.13470	152.37178	652572.158	1176823.857	4.353
1271068180.47600	pano_000001_000035	55.7132752	12.5863718	40.361	-2.35922	0.00993	152.25888	652567.503	1176832.777	4.327
1271068181.17600	pano_000001_000036	55.7133553	12.5862995	40.350	-2.10348	-0.57626	152.30721	652562.852	1176841.644	4.316
1271068181.87600	pano_000001_000037	55.7134361	12.5862275	40.361	-2.81285	-0.13086	152.40726	652558.222	1176850.582	4.326
1271068182.57600	pano_000001_000038	55.7135163	12.5861557	40.333	-2.70013	-0.42338	152.38463	652553.601	1176859.459	4.298
1271068183.28600	pano_000001_000039	55.7135970	12.5860836	40.353	-2.28419	0.21649	152.79754	652548.961	1176868.384	4.319
1271068183.99600	pano_000001_000040	55.7136776	12.5860126	40.325	-2.77378	0.05308	152.46059	652544.388	1176877.301	4.290
1271068184.70100	pano_000001_000041	55.7137575	12.5859406	40.297	-1.93173	-0.81616	152.37724	652539.757	1176886.148	4.262
1271068185.40200	pano_000001_000042	55.7138381	12.5858674	40.350	-1.74618	-0.20027	151.88716	652535.045	1176895.065	4.315
1271068186.09200	pano_000001_000043	55.7139182	12.5857945	40.332	-2.38212	-0.31610	152.16484	652530.357	1176903.921	4.297
1271068186.77700	pano_000001_000044	55.7139984	12.5857226	40.353	-2.94085	-0.23760	152.19663	652525.728	1176912.804	4.318
1271068187.46200	pano_000001_000045	55.7140788	12.5856498	40.357	-2.75663	-0.32443	152.11453	652521.050	1176921.698	4.322
1271068188.14200	pano_000001_000046	55.7141588	12.5855773	40.346	-2.89571	-0.29767	152.02390	652516.386	1176930.550	4.311
1271068188.82200	pano_000001_000047	55.7142388	12.5855042	40.360	-1.92139	-0.41084	152.25066	652511.680	1176939.398	4.324
1271068189.50300	pano_000001_000048	55.7143196	12.5854324	40.348	-2.78081	-0.09316	152.46320	652507.060	1176948.339	4.312
1271068190.18300	pano_000001_000049	55.7143998	12.5853604	40.361	-2.14095	-0.15203	152.38557	652502.431	1176957.210	4.326
1271068190.86800	pano_000001_000050	55.7144800	12.5852883	40.347	-2.23928	-0.00332	152.08023	652497.788	1176966.084	4.312
1271068191.56300	pano_000001_000051	55.7145602	12.5852156	40.313	-2.41859	-0.26708	152.17212	652493.114	1176974.963	4.278
1271068192.26800	pano_000001_000052	55.7146404	12.5851430	40.328	-2.47022	-0.07096	152.00862	652488.443	1176983.831	4.292
1271068192.98800	pano_000001_000053	55.7147208	12.5850699	40.320	-2.79495	0.01686	151.85449	652483.740	1176992.726	4.285
1271068193.71900	pano_000001_000054	55.7148007	12.5849966	40.330	-2.79056	-0.29359	151.83143	652479.025	1177001.568	4.294
1271068194.46400	pano_000001_000055	55.7148808	12.5849233	40.318	-2.59010	0.02831	152.11260	652474.315	1177010.436	4.282
1271068195.22400	pano_000001_000056	55.7149612	12.5848509	40.298	-2.98946	-0.46227	152.25883	652469.656	1177019.329	4.262
1271068195.99400	pano_000001_000057	55.7150416	12.5847787	40.347	-2.76665	-0.22712	152.44272	652465.011	1177028.223	4.311
1271068196.76400	pano_000001_000058	55.7151219	12.5847068	40.355	-2.49831	-0.20562	152.49150	652460.386	1177037.115	4.319
1271068197.53400	pano_000001_000059	55.7152025	12.5846346	40.343	-2.27136	-0.28803	152.41097	652455.740	1177046.033	4.307
1271068198.30500	pano_000001_000060	55.7152833	12.5845626	40.362	-2.32864	-0.25702	152.58498	652451.104	1177054.968	4.326
1271068199.07500	pano_000001_000061	55.7153639	12.5844917	40.376	-2.43120	-0.38838	153.08458	652446.543	1177063.884	4.339
1271068199.84000	pano_000001_000062	55.7154452	12.5844222	40.416	-1.49508	-0.64411	154.43373	652442.065	1177072.885	4.379
1271068200.60000	pano_000001_000063	55.7155275	12.5843565	40.477	-1.46122	-0.51007	155.81158	652437.824	1177081.997	4.441
1271068201.36000	pano_000001_000064	55.7156110	12.5842951	40.457	-1.94530	0.04052	157.79433	652433.857	1177091.252	4.420
1271068202.12600	pano_000001_000065	55.7156953	12.5842386	40.488	-0.63363	-0.26072	160.09621	652430.188	1177100.588	4.451
1271068202.91100	pano_000001_000066	55.7157812	12.5841888	40.520	-1.22199	-0.31830	162.10134	652426.943	1177110.114	4.483
1271068203.71600	pano_000001_000067	55.7158678	12.5841440	40.571	-1.63262	-0.43891	163.81495	652424.014	1177119.726	4.534
1271068204.54100	pano_000001_000068	55.7159546	12.5841018	40.627	-1.42339	-0.54730	164.08315	652421.243	1177129.359	4.590
1271068205.39100	pano_000001_000069	55.7160417	12.5840607	40.681	-1.28279	-0.52428	164.68798	652418.547	1177139.022	4.644
1271068206.26100	pano_000001_000070	55.7161282	12.5840201	40.714	-2.22809	-0.74955	162.18698	652415.880	1177148.623	4.678
1271068207.15700	pano_000001_000071	55.7162128	12.5839667	40.784	-2.42620	-0.31229	155.84733	652412.413	1177158.004	4.747
1271068208.08200	pano_000001_000072	55.7162941	12.5838997	40.828	-0.96372	-0.76441	154.64693	652408.091	1177167.006	4.791
1271068209.03700	pano_000001_000073	55.7163761	12.5838339	40.904	-0.87772	-0.20950	153.11167	652403.848	1177176.080	4.867
1271068210.01800	pano_000001_000074	55.7164520	12.5837547	41.012	-1.41274	-2.23734	142.17022	652398.769	1177184.468	4.975
1271068211.07300	pano_000001_000075	55.7165197	12.5836510	41.336	-0.77344	-1.49395	136.03523	652392.158	1177191.923	5.299
1271068212.32300	pano_000001_000076	55.7165893	12.5835468	41.622	0.46157	-1.22096	147.83156	652385.515	1177199.599	5.585
1271068213.88800	pano_000001_000077	55.7166785	12.5834996	41.803	0.35188	-0.21390	-178.12915	652382.430	1177209.497	5.765
1271068215.38400	pano_000001_000078	55.7167677	12.5835398	41.665	0.64499	0.55093	-159.13611	652384.839	1177219.454	5.627
1271068216.97400	pano_000001_000079	55.7168522	12.5835934	41.494	0.96385	2.37461	-164.47279	652388.091	1177228.901	5.457
1271068283.00000	pano_000002_000000	55.7182781	12.5832435	40.602	0.00311	-0.18467	-8.96687	652364.196	1177387.384	4.564
1271068283.17400	pano_000002_000001	55.7182639	12.5832472	40.606	0.11708	0.08314	-9.23963	652364.449	1177385.802	4.568
1271068284.28900	pano_000002_000002	55.7181750	12.5832725	40.598	0.39393	0.04819	-10.19911	652366.159	1177375.926	4.560
1271068285.44000	pano_000002_000003	55.7180863	12.5832992	40.597	0.39551	-0.14693	-10.14040	652367.953	1177366.072	4.559
1271068286.63000	pano_000002_000004	55.7179970	12.5833240	40.591	1.01021	0.08829	-8.86565	652369.629	1177356.152	4.553
1271068287.85500	pano_000002_000005	55.7179079	12.5833470	40.588	0.40419	-0.24103	-8.74199	652371.194	1177346.249	4.551
1271068289.02600	pano_000002_000006	55.7178185	12.5833687	40.570	-0.01760	-0.26987	-9.15513	652372.678	1177336.314	4.532
1271068290.15600	pano_000002_000007	55.7177294	12.5833926	40.550	0.01874	-0.41617	-9.44554	652374.302	1177326.414	4.512
1271068291.30100	pano_000002_000008	55.7176404	12.5834168	40.573	0.21665	0.05489	-9.39365	652375.943	1177316.521	4.536
1271068292.48600	pano_000002_000009	55.7175515	12.5834414	40.565	0.89389	-0.23018	-9.40053	652377.604	1177306.643	4.527
1271068293.73200	pano_000002_000010	55.7174620	12.5834648	40.604	0.36247	0.37103	-9.16319	652379.196	1177296.698	4.566
1271068295.20200	pano_000002_000011	55.7173734	12.5834886	40.601	0.06989	-0.19406	-9.64170	652380.813	1177286.849	4.564
1271068297.07200	pano_000002_000012	55.7172843	12.5835141	40.628	-0.06406	1.25909	-10.11212	652382.531	1177276.945	4.590
1271068333.11100	pano_000002_000013	55.7171954	12.5835377	40.552	-0.81501	-1.36649	-8.51135	652384.132	1177267.069	4.515
1271068334.88600	pano_000002_000014	55.7171059	12.5835579	40.688	-0.31146	-1.37886	-6.66754	652385.525	1177257.118	4.651
1271068336.38600	pano_000002_000015	55.7170148	12.5835603	40.919	-0.72308	-1.72269	6.08870	652385.795	1177246.976	4.882
1271068337.75200	pano_000002_000016	55.7169258	12.5835226	41.163	-0.41792	-1.80593	20.29161	652383.543	1177237.038	5.126
1271068339.03200	pano_000002_000017	55.7168432	12.5834549	41.424	-0.18093	-1.90536	28.89911	652379.404	1177227.801	5.386
1271068340.39200	pano_000002_000018	55.7167672	12.5833661	41.735	0.20752	-1.23855	38.71755	652373.920	1177219.268	5.697
1271068342.09800	pano_000002_000019	55.7167050	12.5832444	41.825	0.97670	1.13334	58.12788	652366.357	1177212.250	5.788
1271068343.55800	pano_000002_000020	55.7166639	12.5831006	41.547	1.24704	0.81276	67.95469	652357.377	1177207.569	5.509
1271068344.74300	pano_000002_000021	55.7166388	12.5829451	41.331	0.16848	0.40831	78.85281	652347.638	1177204.655	5.293
1271068345.80300	pano_000002_000022	55.7166278	12.5827854	41.195	0.25472	-0.12174	85.74225	652337.616	1177203.305	5.157
1271068346.77400	pano_000002_000023	55.7166250	12.5826255	41.122	-0.38089	-1.04730	89.06985	652327.568	1177202.878	5.084
1271068347.68400	pano_000002_000024	55.7166261	12.5824654	41.190	-0.37067	-1.18394	90.88562	652317.506	1177202.880	5.151
1271068348.54900	pano_000002_000025	55.7166297	12.5823060	41.308	-0.47412	-1.15506	91.99131	652307.484	1177203.154	5.269
1271068349.38400	pano_000002_000026	55.7166338	12.5821467	41.450	-1.09533	-1.23054	91.29888	652297.466	1177203.494	5.411
1271068350.20400	pano_000002_000027	55.7166364	12.5819869	41.579	-0.89636	-1.05283	90.71754	652287.423	1177203.666	5.540
1271068351.01000	pano_000002_000028	55.7166386	12.5818273	41.708	-0.77040	-1.13525	90.57118	652277.391	1177203.784	5.669
1271068351.81000	pano_000002_000029	55.7166406	12.5816673	41.835	-0.64360	-1.09839	90.88594	652267.331	1177203.896	5.796
1271068352.61000	pano_000002_000030	55.7166436	12.5815078	41.983	-1.02190	-0.96347	91.25607	652257.302	1177204.110	5.943
1271068353.42500	pano_000002_000031	55.7166465	12.5813482	42.137	-0.91706	-0.87245	90.85423	652247.272	1177204.312	6.098
1271068354.26100	pano_000002_000032	55.7166489	12.5811883	42.262	-1.23958	-1.02310	90.58535	652237.218	1177204.450	6.222
1271068355.10500	pano_000002_000033	55.7166517	12.5810289	42.385	-0.64971	-0.97594	92.22976	652227.196	1177204.642	6.345
1271068355.94600	pano_000002_000034	55.7166578	12.5808693	42.499	-1.09513	-1.04986	94.20195	652217.156	1177205.206	6.459
1271068356.78100	pano_000002_000035	55.7166662	12.5807102	42.624	-1.26925	-1.07175	93.88402	652207.151	1177206.019	6.584
1271068357.61100	pano_000002_000036	55.7166713	12.5805513	42.762	-2.58722	-0.93783	89.67862	652197.158	1177206.473	6.721
1271068358.44100	pano_000002_000037	55.7166695	12.5803920	42.896	-1.24485	-1.11880	87.34250	652187.148	1177206.150	6.855
1271068359.27100	pano_000002_000038	55.7166676	12.5802323	43.037	-0.63161	-1.12267	89.96738	652177.113	1177205.819	6.996
1271068360.09700	pano_000002_000039	55.7166704	12.5800723	43.183	-0.77051	-1.21883	91.67449	652167.055	1177206.006	7.142
1271068360.92200	pano_000002_000040	55.7166735	12.5799131	43.349	0.19600	-1.12960	90.85314	652157.048	1177206.238	7.308
1271068361.76700	pano_000002_000041	55.7166747	12.5797535	43.508	1.53145	-1.06150	89.86416	652147.011	1177206.243	7.467
1271068362.63700	pano_000002_000042	55.7166749	12.5795940	43.665	1.65581	-0.76717	89.04613	652136.987	1177206.153	7.624
1271068363.52700	pano_000002_000043	55.7166733	12.5794352	43.794	1.48124	-0.99365	87.02259	652127.015	1177205.856	7.753
1271068364.43300	pano_000002_000044	55.7166681	12.5792765	43.927	1.36689	-1.04106	84.54608	652117.045	1177205.157	7.885
1271068365.34800	pano_000002_000045	55.7166594	12.5791184	44.052	0.72854	-0.76227	82.59285	652107.119	1177204.063	8.010
1271068455.50000	pano_000003_000000	55.7166220	12.5789109	44.143	-1.13444	0.03342	-96.93520	652094.133	1177199.749	8.101
1271068456.14900	pano_000003_000001	55.7166281	12.5790109	44.080	-1.11483	0.27013	-96.70874	652100.408	1177200.503	8.038
1271068457.13900	pano_000003_000002	55.7166366	12.5791701	43.952	-1.03414	0.54507	-94.91382	652110.404	1177201.570	7.911
1271068458.09900	pano_000003_000003	55.7166415	12.5793297	43.793	-1.07696	0.41726	-92.50934	652120.425	1177202.231	7.751
1271068459.04500	pano_000003_000004	55.7166428	12.5794897	43.659	-1.16413	0.54015	-90.46843	652130.479	1177202.494	7.618
1271068459.98000	pano_000003_000005	55.7166417	12.5796501	43.528	-1.28999	0.73982	-89.66782	652140.559	1177202.496	7.487
1271068460.90000	pano_000003_000006	55.7166395	12.5798095	43.394	-1.48103	0.61104	-89.38548	652150.578	1177202.373	7.353
1271068461.81500	pano_000003_000007	55.7166375	12.5799687	43.276	-1.35526	0.61354	-89.25106	652160.588	1177202.262	7.235
1271068462.73500	pano_000003_000008	55.7166346	12.5801288	43.135	-1.03036	0.87268	-88.06369	652170.653	1177202.067	7.095
1271068463.66000	pano_000003_000009	55.7166289	12.5802886	43.004	-1.09629	0.86475	-85.93946	652180.700	1177201.550	6.963
1271068464.58600	pano_000003_000010	55.7166213	12.5804470	42.853	-2.02377	0.54292	-87.79350	652190.667	1177200.818	6.812
1271068465.51100	pano_000003_000011	55.7166195	12.5806060	42.736	-1.26516	0.77184	-91.04238	652200.663	1177200.747	6.696
1271068466.42600	pano_000003_000012	55.7166204	12.5807658	42.615	-1.30406	0.63156	-91.31287	652210.704	1177200.965	6.575
1271068467.33100	pano_000003_000013	55.7166205	12.5809261	42.500	-0.91883	0.69538	-89.92959	652220.775	1177201.099	6.460
1271068468.23100	pano_000003_000014	55.7166184	12.5810857	42.384	-1.06522	0.23158	-89.09267	652230.811	1177200.981	6.344
1271068469.13700	pano_000003_000015	55.7166156	12.5812461	42.242	-1.45856	0.81012	-89.12473	652240.894	1177200.787	6.202
1271068470.04700	pano_000003_000016	55.7166133	12.5814055	42.087	-1.19219	0.86163	-89.30003	652250.916	1177200.651	6.047
1271068470.96700	pano_000003_000017	55.7166110	12.5815650	41.933	-0.64088	0.80516	-88.82684	652260.939	1177200.519	5.894
1271068471.89700	pano_000003_000018	55.7166074	12.5817242	41.793	-0.76664	0.48773	-88.16009	652270.950	1177200.243	5.754
1271068472.83800	pano_000003_000019	55.7166029	12.5818838	41.663	-0.64696	0.63478	-87.60174	652280.987	1177199.859	5.624
1271068473.78800	pano_000003_000020	55.7165981	12.5820432	41.535	-1.12316	0.53252	-88.13359	652291.010	1177199.446	5.496
1271068474.74800	pano_000003_000021	55.7165945	12.5822028	41.395	-0.84222	0.87204	-88.54621	652301.045	1177199.162	5.357
1271068475.72300	pano_000003_000022	55.7165905	12.5823624	41.280	-0.91215	0.52365	-87.37259	652311.080	1177198.836	5.242
1271068476.74300	pano_000003_000023	55.7165843	12.5825218	41.226	0.61562	0.28591	-85.15012	652321.106	1177198.263	5.188
1271068477.88900	pano_000003_000024	55.7165755	12.5826802	41.252	1.21121	-0.00392	-85.95664	652331.072	1177197.409	5.214
1271068479.46400	pano_000003_000025	55.7165743	12.5828368	41.353	1.24386	-0.02155	-95.79991	652340.915	1177197.394	5.315
1271068487.48100	pano_000003_000026	55.7165890	12.5829920	41.462	0.92027	-1.22276	-103.24560	652350.652	1177199.147	5.424
1271068489.31100	pano_000003_000027	55.7166089	12.5831472	41.565	-0.64563	-1.39093	-104.51397	652360.378	1177201.479	5.527
1271068490.85200	pano_000003_000028	55.7166383	12.5832938	41.749	-1.85891	-1.78213	-119.89810	652369.549	1177204.860	5.712
1271068492.22200	pano_000003_000029	55.7166916	12.5834196	41.865	-0.48017	0.53524	-135.58315	652377.388	1177210.888	5.827
1271068493.42700	pano_000003_000030	55.7167604	12.5835172	41.674	-0.82310	0.55474	-150.32376	652383.428	1177218.627	5.636
1271068494.56700	pano_000003_000031	55.7168417	12.5835808	41.500	0.64846	1.55468	-163.22331	652387.317	1177227.721	5.463
1271068495.67300	pano_000003_000032	55.7169284	12.5836155	41.214	-0.78758	1.80124	-174.23012	652389.382	1177237.399	5.176
1271068496.74800	pano_000003_000033	55.7170170	12.5836208	40.928	-0.97622	1.30743	176.54119	652389.593	1177247.267	4.891
1271068497.78800	pano_000003_000034	55.7171061	12.5836076	40.701	-1.39686	0.56055	172.29698	652388.647	1177257.178	4.664
1271068498.79300	pano_000003_000035	55.7171952	12.5835859	40.551	-1.63619	0.21568	170.63780	652387.166	1177267.083	4.513
1271068499.76900	pano_000003_000036	55.7172842	12.5835614	40.575	-0.38850	-0.67997	170.70727	652385.506	1177276.967	4.538
1271068500.71400	pano_000003_000037	55.7173736	12.5835378	40.597	-0.69303	0.35821	170.78847	652383.900	1177286.903	4.559
1271068501.65900	pano_000003_000038	55.7174626	12.5835153	40.563	-1.09409	-0.29002	171.60461	652382.371	1177296.796	4.526
1271068502.62500	pano_000003_000039	55.7175516	12.5834922	40.545	-0.59314	-0.31646	170.48869	652380.797	1177306.691	4.507
1271068503.62000	pano_000003_000040	55.7176407	12.5834677	40.549	-0.77225	-0.14917	170.59263	652379.137	1177316.591	4.512
1271068504.64500	pano_000003_000041	55.7177299	12.5834428	40.566	-0.30134	0.11523	170.32223	652377.453	1177326.498	4.529
1271068505.69000	pano_000003_000042	55.7178188	12.5834181	40.575	-0.40167	-0.25938	170.35473	652375.781	1177336.386	4.538
1271068506.72500	pano_000003_000043	55.7179076	12.5833931	40.574	-0.21177	-0.35189	170.03548	652374.091	1177346.248	4.536
1271068507.75000	pano_000003_000044	55.7179966	12.5833670	40.570	-0.33600	-0.17902	169.94829	652372.333	1177356.133	4.533
1271068716.00000	pano_000004_000000	55.7172149	12.5835308	40.516	-1.20310	-0.66501	-9.67658	652383.672	1177269.235	4.478
1271068716.59800	pano_000004_000001	55.7171699	12.5835437	40.572	-0.67162	-0.88437	-9.73570	652384.546	1177264.232	4.534
1271068717.81900	pano_000004_000002	55.7170809	12.5835683	40.712	-0.20240	-1.57498	-8.13896	652386.207	1177254.348	4.674
1271068719.10900	pano_000004_000003	55.7169900	12.5835770	40.987	-0.68891	-1.74552	2.14284	652386.877	1177244.234	4.950
1271068720.46900	pano_000004_000004	55.7168998	12.5835525	41.253	-0.21197	-1.59118	16.09461	652385.457	1177234.169	5.215
1271068721.96000	pano_000004_000005	55.7168162	12.5834870	41.519	-0.34604	-1.35901	31.41753	652381.458	1177224.810	5.481
1271068724.64000	pano_000004_000006	55.7167452	12.5833870	41.772	-0.68239	-0.95559	43.07989	652375.266	1177216.834	5.734
1271068763.44900	pano_000004_000007	55.7166848	12.5832659	41.809	-0.85356	1.20766	48.15147	652367.733	1177210.013	5.771
1271068765.43000	pano_000004_000008	55.7166142	12.5831861	41.591	-1.56940	0.56380	7.51581	652362.814	1177202.103	5.553
1271068767.25000	pano_000004_000009	55.7165362	12.5832300	41.479	-1.66384	0.24529	-41.87117	652365.677	1177193.444	5.441
1271068768.92000	pano_000004_000010	55.7164731	12.5833430	41.391	-1.34535	0.37461	-45.44164	652372.866	1177186.503	5.353
1271068770.62100	pano_000004_000011	55.7164071	12.5834527	41.281	-1.34378	0.30602	-42.41492	652379.846	1177179.245	5.244
1271068772.14100	pano_000004_000012	55.7163388	12.5835571	41.169	-1.14124	-0.23204	-40.96044	652386.498	1177171.722	5.132
1271068773.38600	pano_000004_000013	55.7162681	12.5836575	41.093	-1.25771	0.12454	-37.46122	652392.904	1177163.924	5.055
1271068774.51700	pano_000004_000014	55.7161936	12.5837496	40.977	-0.77502	0.27355	-32.97697	652398.789	1177155.696	4.939
1271068775.54700	pano_000004_000015	55.7161148	12.5838300	40.890	-1.04196	0.81191	-28.00693	652403.951	1177146.982	4.853
1271068776.49700	pano_000004_000016	55.7160327	12.5838975	40.797	-1.70629	-0.20361	-23.39648	652408.302	1177137.895	4.760
1271068777.38200	pano_000004_000017	55.7159482	12.5839557	40.693	-1.67953	0.47780	-20.95447	652412.075	1177128.538	4.656
1271068778.21200	pano_000004_000018	55.7158636	12.5840100	40.528	-1.61701	-0.17786	-20.30589	652415.601	1177119.155	4.491
1271068778.98800	pano_000004_000019	55.7157787	12.5840631	40.473	-0.99177	-0.53055	-19.70042	652419.047	1177109.745	4.436
1271068779.71800	pano_000004_000020	55.7156937	12.5841154	40.460	-0.59483	-0.69198	-20.40471	652422.449	1177100.325	4.423
1271068780.42300	pano_000004_000021	55.7156094	12.5841712	40.443	-1.06719	-0.51402	-22.72247	652426.068	1177090.983	4.407
1271068781.11300	pano_000004_000022	55.7155263	12.5842331	40.448	-1.17973	-0.35618	-24.65887	652430.073	1177081.772	4.411
1271068781.78800	pano_000004_000023	55.7154443	12.5842983	40.424	-1.66888	-0.30875	-25.60646	652434.282	1177072.695	4.387
1271068925.00000	pano_000005_000000	55.7145097	12.5852072	40.425	-0.83637	-0.20511	152.31554	652492.654	1176969.332	4.389
1271068925.43600	pano_000005_000001	55.7145629	12.5851593	40.421	-0.80237	-0.41934	152.32793	652489.570	1176975.220	4.385
1271068926.09100	pano_000005_000002	55.7146433	12.5850872	40.437	-1.25772	-0.33489	152.32176	652484.933	1176984.119	4.401
1271068926.74600	pano_000005_000003	55.7147241	12.5850149	40.431	-1.50744	-0.19026	152.33924	652480.283	1176993.053	4.395
1271068927.40200	pano_000005_000004	55.7148046	12.5849418	40.433	-0.69101	0.03180	152.24036	652475.576	1177001.961	4.397
1271068928.06200	pano_000005_000005	55.7148851	12.5848695	40.415	-1.09299	0.10388	152.37948	652470.924	1177010.865	4.379
1271068928.73200	pano_000005_000006	55.7149654	12.5847973	40.406	-0.81000	-0.23130	152.51322	652466.281	1177019.757	4.370
1271068929.41700	pano_000005_000007	55.7150462	12.5847249	40.436	-0.60632	-0.07899	152.46536	652461.623	1177028.697	4.400
1271068930.11200	pano_000005_000008	55.7151267	12.5846527	40.446	-0.44099	0.14691	152.41071	652456.980	1177037.600	4.410
1271068930.82200	pano_000005_000009	55.7152073	12.5845804	40.436	-0.57764	-0.09362	152.34693	652452.328	1177046.518	4.400
1271068931.54700	pano_000005_000010	55.7152875	12.5845080	40.459	-0.34009	0.12827	152.29426	652447.667	1177055.400	4.422
1271068932.32800	pano_000005_000011	55.7153679	12.5844360	40.489	-0.24733	0.31753	152.92174	652443.035	1177064.296	4.452
1271068933.19800	pano_000005_000012	55.7154490	12.5843667	40.503	0.06301	0.26240	154.42596	652438.569	1177073.267	4.467
1271068934.21300	pano_000005_000013	55.7155313	12.5843011	40.547	0.34568	0.34830	156.18717	652434.338	1177082.382	4.510
1271068935.46300	pano_000005_000014	55.7156149	12.5842411	40.531	-0.19786	0.37769	158.43043	652430.458	1177091.646	4.494
1271068937.22400	pano_000005_000015	55.7156999	12.5841876	40.521	-0.08421	-0.01611	161.01168	652426.982	1177101.071	4.484
1271068940.33500	pano_000005_000016	55.7157855	12.5841382	40.564	-0.44355	-0.45100	161.67656	652423.760	1177110.557	4.527
1271068958.59400	pano_000005_000017	55.7158715	12.5840934	40.613	-0.94618	-1.26980	162.82532	652420.831	1177120.099	4.576
1271068960.88400	pano_000005_000018	55.7159592	12.5840530	40.688	-1.48754	-0.39485	166.57866	652418.172	1177129.837	4.651
1271068962.87000	pano_000005_000019	55.7160467	12.5840184	40.716	-1.40605	-0.79028	164.83951	652415.881	1177139.543	4.679
1271068964.51000	pano_000005_000020	55.7161324	12.5839728	40.763	-1.31770	-0.58456	160.05391	652412.901	1177149.059	4.726
1271068966.05000	pano_000005_000021	55.7162155	12.5839147	40.838	-1.45180	-0.23657	154.21488	652409.137	1177158.267	4.801
1271068967.49100	pano_000005_000022	55.7162947	12.5838409	40.859	-0.62929	-0.24826	148.84449	652404.393	1177167.028	4.822
1271068968.89600	pano_000005_000023	55.7163689	12.5837547	40.915	-0.82620	-1.18748	142.62951	652398.880	1177175.220	4.878
1271068970.37100	pano_000005_000024	55.7164384	12.5836566	41.107	-0.08839	-2.26517	138.06545	652392.621	1177182.878	5.070
1271068971.75200	pano_000005_000025	55.7165026	12.5835463	41.347	0.95752	-1.80255	132.74901	652385.599	1177189.949	5.310
1271068973.05700	pano_000005_000026	55.7165619	12.5834270	41.557	1.48324	-1.23654	128.37334	652378.027	1177196.457	5.520
1271068974.29200	pano_000005_000027	55.7166162	12.5833004	41.665	1.78785	-0.75420	124.97206	652369.996	1177202.403	5.627
1271068975.47300	pano_000005_000028	55.7166677	12.5831697	41.610	1.77087	-0.26109	123.05274	652361.713	1177208.042	5.572
1271068976.61800	pano_000005_000029	55.7167141	12.5830341	41.528	0.94170	1.27468	115.96586	652353.132	1177213.107	5.490
1271068977.76300	pano_000005_000030	55.7167485	12.5828891	41.281	1.08408	1.05239	108.06479	652343.973	1177216.823	5.242
1271068978.84800	pano_000005_000031	55.7167730	12.5827371	41.025	1.19493	1.11531	101.76104	652334.383	1177219.434	4.987
1271068979.86900	pano_000005_000032	55.7167878	12.5825809	40.753	1.21495	1.19675	95.37155	652324.550	1177220.972	4.715
1271068980.85400	pano_000005_000033	55.7167938	12.5824229	40.519	1.24300	1.32365	90.90822	652314.610	1177221.516	4.481
1271068981.81400	pano_000005_000034	55.7167934	12.5822644	40.248	1.19784	1.28005	86.82261	652304.652	1177221.355	4.209
1271068982.74900	pano_000005_000035	55.7167873	12.5821052	39.954	1.20789	1.77218	84.00791	652294.657	1177220.556	3.915
1271069323.50200	pano_000006_000000	55.7164925	12.5814461	37.558	0.80245	-4.58591	-95.91715	652253.628	1177187.238	1.519
1271069323.91500	pano_000006_000001	55.7164976	12.5815405	37.958	0.69438	-4.58921	-96.67283	652259.553	1177187.872	1.919
1271069324.59500	pano_000006_000002	55.7165075	12.5816987	38.645	1.21392	-4.28747	-96.63222	652269.480	1177189.093	2.606
1271069325.27400	pano_000006_000003	55.7165156	12.5818568	39.307	0.97613	-4.40697	-94.86535	652279.406	1177190.121	3.268
1271069325.95900	pano_000006_000004	55.7165207	12.5820165	39.966	0.28446	-3.92681	-92.56365	652289.434	1177190.804	3.927
1271069326.65900	pano_000006_000005	55.7165218	12.5821768	40.566	0.35050	-3.12959	-88.90033	652299.511	1177191.048	4.528
1271069327.37900	pano_000006_000006	55.7165158	12.5823375	41.028	-0.91123	-2.33314	-84.95463	652309.618	1177190.500	4.989
1271069328.11400	pano_000006_000007	55.7165058	12.5824966	41.301	-0.15123	-1.91562	-83.44560	652319.631	1177189.507	5.263
1271069328.86900	pano_000006_000008	55.7164932	12.5826553	41.527	0.42812	-0.81950	-80.38459	652329.622	1177188.232	5.488
1271069329.62900	pano_000006_000009	55.7164734	12.5828125	41.575	0.62125	-0.01517	-74.33507	652339.528	1177186.139	5.536
1271069330.38400	pano_000006_000010	55.7164435	12.5829644	41.470	0.52868	0.57686	-67.34464	652349.112	1177182.924	5.433
1271069331.17400	pano_000006_000011	55.7164031	12.5831092	41.359	-0.09553	1.29556	-60.62749	652358.267	1177178.539	5.321
1271069332.07900	pano_000006_000012	55.7163538	12.5832442	41.239	-0.37991	1.53622	-54.15547	652366.813	1177173.146	5.201
1271069333.27500	pano_000006_000013	55.7162968	12.5833686	41.102	-0.96064	1.39667	-49.91318	652374.710	1177166.904	5.065
1271069335.69500	pano_000006_000014	55.7162357	12.5834857	40.973	-1.52679	1.06859	-46.63151	652382.150	1177160.188	4.936
1271069347.60300	pano_000006_000015	55.7161713	12.5835973	40.833	-2.18902	1.02588	-47.29539	652389.253	1177153.097	4.795
1271069349.92300	pano_000006_000016	55.7161438	12.5837301	40.842	-2.12908	-1.27765	-103.27229	652397.633	1177150.137	4.805
1271069351.85400	pano_000006_000017	55.7161961	12.5838431	40.941	-1.71428	0.60816	-153.44874	652404.664	1177156.046	4.904
1271069415.50000	pano_000007_000000	55.7166044	12.5810889	42.350	-0.17559	-0.56815	-101.06408	652231.028	1177199.426	6.310
1271069416.13400	pano_000007_000001	55.7166095	12.5811609	42.315	-0.73663	0.30619	-94.88533	652235.548	1177200.046	6.275
1271069417.40900	pano_000007_000002	55.7166120	12.5813215	42.165	-1.05039	0.42732	-90.40233	652245.638	1177200.446	6.125
1271069418.58400	pano_000007_000003	55.7166100	12.5814817	42.004	-0.93499	0.41451	-89.26668	652255.707	1177200.348	5.965
1271069419.70900	pano_000007_000004	55.7166085	12.5816414	41.868	-0.73326	0.43764	-90.27456	652265.747	1177200.301	5.828
1271069420.78000	pano_000007_000005	55.7166072	12.5818015	41.733	-0.51578	0.29795	-88.62555	652275.813	1177200.277	5.694
1271069421.77000	pano_000007_000006	55.7166020	12.5819615	41.596	-0.75821	0.42179	-85.98575	652285.870	1177199.816	5.557
1271069422.71500	pano_000007_000007	55.7165928	12.5821212	41.465	-0.80433	0.61359	-84.02641	652295.919	1177198.911	5.426
1271069423.63500	pano_000007_000008	55.7165818	12.5822800	41.303	-0.96488	0.50026	-83.51976	652305.914	1177197.811	5.264
1271069424.55600	pano_000007_000009	55.7165704	12.5824385	41.208	-0.81246	0.20498	-83.13103	652315.894	1177196.655	5.170
1271069425.49600	pano_000007_000010	55.7165578	12.5825964	41.194	-1.18061	-0.43009	-82.43160	652325.834	1177195.374	5.156
1271069426.46600	pano_000007_000011	55.7165448	12.5827547	41.282	-0.77799	-0.55548	-82.35832	652335.797	1177194.047	5.243
1271069427.53600	pano_000007_000012	55.7165313	12.5829129	41.381	-1.31188	-0.06522	-82.12160	652345.755	1177192.667	5.343
1271069428.97200	pano_000007_000013	55.7165151	12.5830715	41.400	-0.68601	0.77334	-76.33741	652355.745	1177190.977	5.362
1271069431.86200	pano_000007_000014	55.7164798	12.5832209	41.350	-0.95127	0.27825	-59.27219	652365.184	1177187.165	5.312
1271069434.49800	pano_000007_000015	55.7164264	12.5833515	41.260	-0.88308	0.06225	-50.29935	652373.464	1177181.313	5.223
1271069436.37300	pano_000007_000016	55.7163618	12.5834651	41.157	-0.88726	0.05771	-42.02373	652380.686	1177174.211	5.119
1271069437.85900	pano_000007_000017	55.7162923	12.5835678	41.057	-0.94533	0.08621	-38.84176	652387.233	1177166.544	5.019
1271069439.10900	pano_000007_000018	55.7162196	12.5836632	40.971	-0.81576	0.16171	-35.27012	652393.326	1177158.525	4.934
1271069440.23400	pano_000007_000019	55.7161432	12.5837488	40.845	-0.33300	0.07673	-29.90801	652398.808	1177150.084	4.808
1271069441.28400	pano_000007_000020	55.7160624	12.5838215	40.733	-0.87893	-0.04370	-25.70708	652403.484	1177141.148	4.696
1271069442.26000	pano_000007_000021	55.7159790	12.5838847	40.643	-1.97151	0.34183	-22.24775	652407.572	1177131.907	4.606
1271069443.16000	pano_000007_000022	55.7158945	12.5839399	40.490	-1.37094	0.03498	-19.26619	652411.151	1177122.539	4.453
1271069444.00500	pano_000007_000023	55.7158090	12.5839898	40.435	-0.82809	-0.15377	-19.08136	652414.403	1177113.063	4.398
1271069444.81000	pano_000007_000024	55.7157237	12.5840401	40.406	-1.57813	-0.45495	-19.78247	652417.680	1177103.602	4.370
1271069445.58500	pano_000007_000025	55.7156392	12.5840946	40.401	-2.14125	-0.34345	-22.74196	652421.213	1177094.240	4.364
1271070072.50000	pano_000008_000000	55.7146645	12.5885445	40.214	0.07867	-0.31136	-73.96757	652702.190	1176989.099	4.182
1271070093.76400	pano_000008_000001	55.7146315	12.5887106	40.279	2.64378	-0.35569	-70.51964	652712.673	1176985.550	4.247
1271070099.21000	pano_000008_000002	55.7145949	12.5888573	40.272	1.71953	-1.78897	-62.72182	652721.943	1176981.584	4.240
1271070102.66100	pano_000008_000003	55.7145655	12.5890050	40.313	2.63815	0.18684	-77.17274	652731.260	1176978.431	4.281
1271070105.88700	pano_000008_000004	55.7145383	12.5891586	40.315	2.07702	-0.39611	-67.05648	652740.955	1176975.515	4.283
1271070109.79300	pano_000008_000005	55.7144989	12.5893020	40.356	0.35252	-0.92651	-65.38084	652750.019	1176971.232	4.324
1271070112.83300	pano_000008_000006	55.7144580	12.5894443	40.393	-0.09319	-0.47462	-64.21507	652759.019	1176966.792	4.362
1271070115.65400	pano_000008_000007	55.7144314	12.5895945	40.404	0.42449	1.54405	-77.82952	652768.491	1176963.943	4.373
1271070166.70100	pano_000009_000000	55.7143641	12.5896819	40.275	2.93166	-0.36053	-2.82167	652774.079	1176956.520	4.243
1271070169.11600	pano_000009_000001	55.7142745	12.5896421	40.255	3.05927	-0.52800	22.36214	652771.696	1176946.510	4.224
1271070170.80100	pano_000009_000002	55.7141915	12.5895794	40.241	3.60150	-0.41779	22.82942	652767.870	1176937.228	4.210
1271070172.26200	pano_000009_000003	55.7141093	12.5895158	40.266	2.36593	-1.00726	22.30543	652763.980	1176928.030	4.235
1271070173.52700	pano_000009_000004	55.7140260	12.5894538	40.290	3.02651	-0.74045	22.51066	652760.196	1176918.705	4.259
1271070174.62800	pano_000009_000005	55.7139429	12.5893911	40.306	3.09437	-0.54500	22.27733	652756.368	1176909.404	4.274
1271070175.63800	pano_000009_000006	55.7138598	12.5893291	40.258	2.47980	-0.47510	21.93533	652752.583	1176900.111	4.226
1271070176.59800	pano_000009_000007	55.7137767	12.5892682	40.282	2.34112	-0.32241	21.71310	652748.869	1176890.810	4.251
1271070177.52800	pano_000009_000008	55.7136933	12.5892079	40.294	2.51201	-0.08596	21.57294	652745.188	1176881.474	4.263
1271070178.43800	pano_000009_000009	55.7136099	12.5891471	40.273	1.98407	-0.46311	21.54539	652741.484	1176872.150	4.241
1271070179.33300	pano_000009_000010	55.7135266	12.5890873	40.284	2.48424	-0.35116	21.58679	652737.835	1176862.823	4.252
1271070180.22900	pano_000009_000011	55.7134432	12.5890269	40.289	2.31243	-0.64398	21.64338	652734.151	1176853.495	4.257
1271070181.10900	pano_000009_000012	55.7133597	12.5889669	40.283	2.48363	-0.55332	21.27321	652730.492	1176844.158	4.252
1271070181.97400	pano_000009_000013	55.7132762	12.5889080	40.280	2.58191	-0.45016	20.99707	652726.902	1176834.819	4.248
1271070182.83400	pano_000009_000014	55.7131925	12.5888493	40.278	2.44329	-0.49958	20.92023	652723.328	1176825.452	4.246
1271070183.68900	pano_000009_000015	55.7131083	12.5887909	40.249	3.91185	0.35204	21.23586	652719.773	1176816.028	4.217
1271070184.54000	pano_000009_000016	55.7130244	12.5887315	40.259	3.65377	-0.03925	21.44175	652716.148	1176806.645	4.227
1271070185.39500	pano_000009_000017	55.7129412	12.5886703	40.258	2.60446	-0.41219	22.08981	652712.416	1176797.341	4.226
1271070186.27000	pano_000009_000018	55.7128580	12.5886083	40.286	2.61394	-0.21708	22.22369	652708.630	1176788.031	4.254
1271070187.16500	pano_000009_000019	55.7127748	12.5885468	40.290	3.02510	-0.30095	21.98326	652704.875	1176778.714	4.258
1271070188.08500	pano_000009_000020	55.7126913	12.5884856	40.313	3.04573	0.03467	21.84601	652701.144	1176769.371	4.281
1271070189.04100	pano_000009_000021	55.7126076	12.5884249	40.322	3.01993	0.68621	21.61195	652697.440	1176760.015	4.290
1271070190.11100	pano_000009_000022	55.7125244	12.5883647	40.288	3.34715	0.18560	22.54028	652693.769	1176750.705	4.256
1271070191.56100	pano_000009_000023	55.7124429	12.5882923	40.293	1.12197	0.79183	32.45636	652689.330	1176741.577	4.260
1271070194.05700	pano_000009_000024	55.7123812	12.5881714	40.309	1.28542	0.15799	65.68311	652681.812	1176734.613	4.276
1271070197.76800	pano_000009_000025	55.7123643	12.5880140	40.262	0.63588	-1.19245	83.08326	652671.940	1176732.612	4.229
1271070199.98300	pano_000009_000026	55.7123513	12.5878570	40.340	1.15098	-0.64196	80.42781	652662.091	1176731.044	4.308
1271070201.85900	pano_000009_000027	55.7123382	12.5876992	40.367	1.47376	-0.27190	81.11898	652652.189	1176729.466	4.334
1271070203.74900	pano_000009_000028	55.7123251	12.5875417	40.383	0.84908	-0.08897	81.14095	652642.313	1176727.893	4.350
1271070206.50000	pano_000009_000029	55.7123139	12.5873835	40.392	1.27214	-1.09795	86.77683	652632.383	1176726.523	4.359
1271070209.22500	pano_000009_000030	55.7123340	12.5872223	40.488	-0.23780	-0.13539	127.52799	652622.225	1176728.644	4.455
1271070211.14100	pano_000009_000031	55.7124102	12.5871317	40.420	-1.60371	-0.18438	153.84733	652616.425	1176737.058	4.387
1271070212.61600	pano_000009_000032	55.7124910	12.5870630	40.401	-2.26870	-0.33630	152.90188	652612.000	1176745.993	4.368
1271070213.92600	pano_000009_000033	55.7125708	12.5869905	40.369	-0.87034	-0.37614	152.25832	652607.334	1176754.827	4.336
1271070354.50000	pano_000010_000000	55.7123467	12.5877229	40.370	0.16524	-0.18662	79.16782	652653.669	1176730.438	4.337
1271070354.99900	pano_000010_000001	55.7123431	12.5876879	40.369	0.76494	-0.25749	79.43681	652651.474	1176730.000	4.336
1271070357.34900	pano_000010_000002	55.7123286	12.5875301	40.384	0.15242	-0.19494	81.24028	652641.575	1176728.274	4.351
1271070360.06500	pano_000010_000003	55.7123383	12.5873676	40.410	-0.59624	-0.50133	114.74675	652631.348	1176729.225	4.377
1271070362.87000	pano_000010_000004	55.7123990	12.5872431	40.369	-0.55546	0.92016	146.76354	652623.442	1176735.887	4.335
1271070365.14600	pano_000010_000005	55.7124790	12.5871714	40.329	1.06796	-1.38837	153.72710	652618.828	1176744.738	4.296
1271070366.97100	pano_000010_000006	55.7125599	12.5871017	40.385	0.65829	-0.29177	153.16429	652614.341	1176753.697	4.352
1271070368.57200	pano_000010_000007	55.7126401	12.5870307	40.379	0.90307	-0.47329	152.24649	652609.767	1176762.567	4.346
1271070370.07700	pano_000010_000008	55.7127199	12.5869583	40.432	0.53976	-0.62828	152.08709	652605.113	1176771.403	4.398
1271070371.56700	pano_000010_000009	55.7127999	12.5868855	40.456	1.36515	-0.16317	152.70671	652600.430	1176780.256	4.423
1271070373.07300	pano_000010_000010	55.7128802	12.5868140	40.453	1.92951	-0.02814	152.53563	652595.826	1176789.134	4.419
1271070374.61300	pano_000010_000011	55.7129597	12.5867415	40.449	2.46687	-0.46456	152.02266	652591.166	1176797.933	4.415
1271070376.18900	pano_000010_000012	55.7130395	12.5866680	40.437	2.59626	-0.09270	152.48689	652586.436	1176806.762	4.403
1271070377.76900	pano_000010_000013	55.7131199	12.5865976	40.427	2.00273	-0.43456	152.79791	652581.905	1176815.660	4.393
1271070379.33500	pano_000010_000014	55.7132004	12.5865270	40.438	0.89077	0.04679	152.72462	652577.360	1176824.563	4.404
1271070380.92000	pano_000010_000015	55.7132799	12.5864546	40.417	2.29297	-0.27528	151.77144	652572.703	1176833.361	4.383
1271070382.56000	pano_000010_000016	55.7133598	12.5863817	40.442	0.84741	-0.21803	152.06279	652568.013	1176842.200	4.408
1271070384.24000	pano_000010_000017	55.7134397	12.5863095	40.432	2.02251	-0.25322	152.72853	652563.368	1176851.041	4.398
1271070385.95100	pano_000010_000018	55.7135197	12.5862378	40.415	2.05423	-0.21379	152.30913	652558.754	1176859.901	4.381
1271070387.71100	pano_000010_000019	55.7135996	12.5861662	40.423	0.78337	-0.07286	152.03876	652554.147	1176868.739	4.388
1271070389.55200	pano_000010_000020	55.7136774	12.5860899	40.386	-0.60742	-0.20964	147.04526	652549.245	1176877.339	4.352
1271070391.42200	pano_000010_000021	55.7137529	12.5860044	40.366	0.39303	-0.49444	148.34651	652543.769	1176885.680	4.331
1271070393.18200	pano_000010_000022	55.7138340	12.5859337	40.377	-0.80222	-0.12770	154.95114	652539.222	1176894.661	4.343
1271070394.89800	pano_000010_000023	55.7139146	12.5858658	40.347	-1.34439	-0.16784	151.86285	652534.844	1176903.581	4.312
1271070396.57300	pano_000010_000024	55.7139941	12.5857926	40.367	-0.74214	-0.48518	152.73079	652530.135	1176912.376	4.332
1271070398.18400	pano_000010_000025	55.7140746	12.5857215	40.384	-0.68412	-0.26262	153.07509	652525.560	1176921.286	4.349
1271070399.75900	pano_000010_000026	55.7141547	12.5856505	40.378	-1.82241	-0.19518	151.92295	652520.992	1176930.146	4.343
1271070401.48900	pano_000010_000027	55.7142346	12.5855787	40.388	-1.81273	-0.64423	153.39383	652516.370	1176938.987	4.353
1271070403.14500	pano_000010_000028	55.7143148	12.5855074	40.393	-1.73676	-0.09480	150.95344	652511.779	1176947.865	4.358
1271070404.65000	pano_000010_000029	55.7143941	12.5854331	40.383	-1.13953	-0.60974	152.66950	652507.003	1176956.636	4.347
1271070406.03100	pano_000010_000030	55.7144747	12.5853623	40.403	-1.93182	-0.08316	152.67842	652502.448	1176965.554	4.367
1271070407.35600	pano_000010_000031	55.7145549	12.5852904	40.377	-1.78130	-0.00993	152.36241	652497.820	1176974.425	4.342
1271070408.71100	pano_000010_000032	55.7146348	12.5852180	40.373	-1.57029	-0.14717	151.86689	652493.162	1176983.264	4.338
1271070410.09600	pano_000010_000033	55.7147147	12.5851451	40.359	-1.77253	-0.08871	152.20079	652488.475	1176992.105	4.324
1271070411.47200	pano_000010_000034	55.7147946	12.5850733	40.390	-1.66821	-0.39300	152.40990	652483.853	1177000.948	4.354
1271070412.83200	pano_000010_000035	55.7148747	12.5850012	40.385	-1.28138	-0.02660	152.47231	652479.218	1177009.813	4.349
1271070414.25700	pano_000010_000036	55.7149550	12.5849300	40.361	-1.29526	0.25227	152.77546	652474.638	1177018.700	4.325
1271070415.95300	pano_000010_000037	55.7150342	12.5848568	40.387	-0.59901	-0.30095	150.94216	652469.930	1177027.461	4.351
1271070417.60300	pano_000010_000038	55.7151137	12.5847822	40.396	-0.79323	-0.13390	152.36673	652465.131	1177036.258	4.360
1271070419.46300	pano_000010_000039	55.7151947	12.5847124	40.394	-0.92571	0.23349	153.94964	652460.641	1177045.215	4.357
1271070422.01400	pano_000010_000040	55.7152754	12.5846429	40.387	-0.96640	-0.29211	155.98281	652456.162	1177054.150	4.351
1271070424.29000	pano_000010_000041	55.7153608	12.5845903	40.383	-1.52925	-0.37971	162.20551	652452.743	1177063.617	4.346
1271070426.10000	pano_000010_000042	55.7154487	12.5845521	40.397	-1.44069	-0.53237	167.93615	652450.224	1177073.374	4.361
1271070427.73000	pano_000010_000043	55.7155349	12.5845123	40.438	-0.61420	-0.34233	159.82084	652447.605	1177082.938	4.402
1271070429.43600	pano_000010_000044	55.7156172	12.5844516	40.486	-1.60817	-0.37254	153.39609	652443.680	1177092.059	4.450
1271070431.43100	pano_000010_000045	55.7156972	12.5843799	40.541	-1.38098	-0.31656	152.09510	652439.067	1177100.914	4.505
1271070433.50200	pano_000010_000046	55.7157764	12.5843053	40.564	-1.48612	-0.61123	150.22438	652434.274	1177109.675	4.527
1271070435.48200	pano_000010_000047	55.7158573	12.5842327	40.632	-0.84539	-0.54398	157.92026	652429.601	1177118.623	4.595
1271070437.57800	pano_000010_000048	55.7159455	12.5841916	40.670	-0.73639	-0.42218	169.98878	652426.902	1177128.410	4.633
1271070439.80800	pano_000010_000049	55.7160345	12.5841712	40.703	-1.91722	-0.89994	171.40287	652425.500	1177138.305	4.666
1271070442.06900	pano_000010_000050	55.7161231	12.5841445	40.748	-1.72384	-0.45079	169.07500	652423.706	1177148.146	4.712
1271070444.01400	pano_000010_000051	55.7162126	12.5841204	40.719	-1.19348	0.92043	170.67143	652422.068	1177158.099	4.682
1271070445.86900	pano_000010_000052	55.7163003	12.5840892	40.531	-1.64559	1.12990	165.24818	652419.991	1177167.836	4.494
1271070448.27000	pano_000010_000053	55.7163855	12.5840444	40.379	-2.19433	0.51144	159.58997	652417.062	1177177.290	4.342
1271070451.50600	pano_000010_000054	55.7164661	12.5839815	40.380	-2.09845	-1.25537	148.72976	652412.998	1177186.212	4.343
1271070453.33600	pano_000010_000055	55.7165427	12.5838979	40.529	-1.40726	-1.40457	149.90331	652407.644	1177194.680	4.492
1271070454.90200	pano_000010_000056	55.7166245	12.5838276	40.712	-1.16401	-1.30740	157.84245	652403.118	1177203.734	4.675
1271070456.40200	pano_000010_000057	55.7167114	12.5837813	40.911	-2.20311	-1.54374	167.18914	652400.093	1177213.374	4.874
1271070457.85200	pano_000010_000058	55.7168018	12.5837579	41.014	-1.54168	-0.35918	175.71379	652398.496	1177223.414	4.977
1271070459.24300	pano_000010_000059	55.7168930	12.5837586	40.934	-2.53187	0.69738	-177.47713	652398.420	1177233.567	4.897
1271070460.61800	pano_000010_000060	55.7169822	12.5837603	40.763	-2.23526	0.97557	175.34920	652398.410	1177243.502	4.726
1271070462.00800	pano_000010_000061	55.7170703	12.5837382	40.664	-1.64523	0.70288	167.25380	652396.902	1177253.290	4.627
1271070463.41300	pano_000010_000062	55.7171575	12.5837024	40.562	-1.81360	0.01827	167.02524	652394.538	1177262.975	4.525
1271070464.76400	pano_000010_000063	55.7172462	12.5836724	40.484	-0.46401	0.10204	170.38134	652392.529	1177272.830	4.446
1271070466.04900	pano_000010_000064	55.7173353	12.5836493	40.504	-0.75382	-0.35978	171.16631	652390.963	1177282.729	4.467
1271070467.28900	pano_000010_000065	55.7174247	12.5836277	40.461	-1.94354	-0.07112	171.22952	652389.481	1177292.669	4.424
1271070468.52500	pano_000010_000066	55.7175137	12.5836056	40.483	-1.37855	-0.21452	171.22001	652387.973	1177302.559	4.446
1271070469.78500	pano_000010_000067	55.7176024	12.5835811	40.497	-0.86486	-0.09688	169.91337	652386.318	1177312.414	4.460
1271070471.04500	pano_000010_000068	55.7176913	12.5835554	40.478	-0.66908	-0.41612	170.35083	652384.585	1177322.290	4.440
1271070472.29100	pano_000010_000069	55.7177808	12.5835326	40.511	-1.52748	-0.15217	171.09626	652383.031	1177332.233	4.473
1271070473.51600	pano_000010_000070	55.7178698	12.5835098	40.493	-1.45598	-0.24551	170.96236	652381.476	1177342.132	4.455
1271070474.77100	pano_000010_000071	55.7179592	12.5834873	40.488	-1.40464	0.16024	171.16973	652379.946	1177352.063	4.450
1271070476.06100	pano_000010_000072	55.7180480	12.5834637	40.470	-1.17721	-0.45936	170.48593	652378.345	1177361.932	4.432
1271070477.38700	pano_000010_000073	55.7181368	12.5834384	40.511	-0.13273	-0.05155	170.31859	652376.636	1177371.805	4.473
1271071187.50000	pano_000011_000000	55.7179773	12.5881520	40.149	-1.67286	-0.99482	154.61782	652673.064	1177357.608	4.116
1271071200.00300	pano_000011_000001	55.7180632	12.5880162	40.139	0.81968	-0.23896	106.83820	652664.412	1177367.075	4.106
1271071205.97900	pano_000011_000002	55.7180864	12.5878706	40.166	-1.99427	-0.28397	73.67855	652655.233	1177369.551	4.133
1271071209.92000	pano_000011_000003	55.7180379	12.5877418	40.159	-1.97917	-0.52369	50.54802	652647.203	1177364.053	4.125
1271071212.60000	pano_000011_000004	55.7179791	12.5876217	40.161	-2.11019	-0.19220	45.86695	652639.736	1177357.407	4.128
1271071215.01600	pano_000011_000005	55.7179149	12.5875103	40.156	-2.29411	0.03099	41.56741	652632.817	1177350.179	4.122
1271071217.30100	pano_000011_000006	55.7178475	12.5874046	40.163	-1.94227	-0.33716	40.99842	652626.268	1177342.591	4.129
1271071219.47200	pano_000011_000007	55.7177807	12.5872969	40.174	-1.86902	-0.31631	41.83915	652619.591	1177335.071	4.140
1271071221.60200	pano_000011_000008	55.7177142	12.5871892	40.179	-1.50891	-0.20121	41.73731	652612.914	1177327.597	4.145
1271071223.76800	pano_000011_000009	55.7176475	12.5870822	40.160	-1.21624	-0.20617	40.91905	652606.279	1177320.082	4.125
1271071225.96300	pano_000011_000010	55.7175797	12.5869772	40.155	-1.00228	-0.21866	40.04256	652599.772	1177312.454	4.121
1271071228.52400	pano_000011_000011	55.7175145	12.5868634	40.145	-1.21957	-0.66522	56.78855	652592.703	1177305.108	4.111
1271071231.40000	pano_000011_000012	55.7174878	12.5867076	40.163	-1.93984	-0.32636	76.64948	652582.953	1177302.025	4.128
1271071234.11000	pano_000011_000013	55.7174674	12.5865524	40.152	-2.74709	-0.28340	75.82491	652573.223	1177299.633	4.117
