#0:imgID,1:Uniqe_id,1:camSN,2:lat,3:lon,4:height,5:roll,6:pitch,7:heading,8:AcquisitionTime,9:projectedX,10:projectedY,11:projectedZ,12:Region,13:Roll_Original,14:Pitch_Original
pano_000000_000000,pano_000000_000000-50100,Pegasus,55.7164299,12.5807628,35.381,0,0,-96.50760,2020-04-16 10:23:24.000000,652210.772,1177179.755,-0.659,NykoebingF-Sydmotorvejen,1.51045,-0.94557
pano_000000_000001,pano_000000_000001-50100,Pegasus,55.7164329,12.5808133,35.432,0,0,-96.36005,2020-04-16 10:23:24.000000,652213.936,1177180.127,-0.608,NykoebingF-Sydmotorvejen,1.76651,-1.31266
pano_000000_000002,pano_000000_000002-50100,Pegasus,55.7164413,12.5809709,35.699,0,0,-95.85368,2020-04-16 10:23:25.000000,652223.832,1177181.177,-0.341,NykoebingF-Sydmotorvejen,1.41564,-2.76155
pano_000000_000003,pano_000000_000003-50100,Pegasus,55.7164489,12.5811287,36.214,0,0,-95.49967,2020-04-16 10:23:25.000000,652233.738,1177182.147,0.174,NykoebingF-Sydmotorvejen,0.69490,-3.79381
pano_000000_000004,pano_000000_000004-50100,Pegasus,55.7164558,12.5812867,36.850,0,0,-95.17670,2020-04-16 10:23:26.000000,652243.659,1177183.031,0.811,NykoebingF-Sydmotorvejen,-0.19080,-4.01225
pano_000000_000005,pano_000000_000005-50100,Pegasus,55.7164626,12.5814449,37.512,0,0,-95.36838,2020-04-16 10:23:27.000000,652253.589,1177183.907,1.473,NykoebingF-Sydmotorvejen,-0.59762,-3.98032
pano_000000_000006,pano_000000_000006-50100,Pegasus,55.7164703,12.5816027,38.181,0,0,-96.04655,2020-04-16 10:23:28.000000,652263.497,1177184.884,2.142,NykoebingF-Sydmotorvejen,-0.49936,-4.01449
pano_000000_000007,pano_000000_000007-50100,Pegasus,55.7164790,12.5817605,38.853,0,0,-96.59796,2020-04-16 10:23:29.000000,652273.407,1177185.974,2.813,NykoebingF-Sydmotorvejen,-0.41618,-4.08849
pano_000000_000008,pano_000000_000008-50100,Pegasus,55.7164878,12.5819191,39.497,0,0,-95.31607,2020-04-16 10:23:30.000000,652283.358,1177187.073,3.458,NykoebingF-Sydmotorvejen,-0.05733,-4.26056
pano_000000_000009,pano_000000_000009-50100,Pegasus,55.7164922,12.5820793,40.124,0,0,-90.94737,2020-04-16 10:23:31.000000,652293.424,1177187.679,4.085,NykoebingF-Sydmotorvejen,-0.38906,-3.70226
pano_000000_000010,pano_000000_000010-50100,Pegasus,55.7164888,12.5822398,40.662,0,0,-85.66513,2020-04-16 10:23:32.000000,652303.510,1177187.424,4.624,NykoebingF-Sydmotorvejen,-0.87512,-2.53206
pano_000000_000011,pano_000000_000011-50100,Pegasus,55.7164772,12.5823990,41.049,0,0,-80.56621,2020-04-16 10:23:33.000000,652313.530,1177186.249,5.011,NykoebingF-Sydmotorvejen,-0.63816,-1.64474
pano_000000_000012,pano_000000_000012-50100,Pegasus,55.7164581,12.5825558,41.319,0,0,-76.74808,2020-04-16 10:23:35.000000,652323.414,1177184.246,5.280,NykoebingF-Sydmotorvejen,-1.36568,-0.76405
pano_000000_000013,pano_000000_000013-50100,Pegasus,55.7164330,12.5827099,41.429,0,0,-72.06220,2020-04-16 10:23:36.000000,652333.131,1177181.566,5.391,NykoebingF-Sydmotorvejen,-1.34593,0.37221
pano_000000_000014,pano_000000_000014-50100,Pegasus,55.7164002,12.5828586,41.344,0,0,-67.27311,2020-04-16 10:23:44.000000,652342.522,1177178.029,5.306,NykoebingF-Sydmotorvejen,-1.57024,0.87171
pano_000000_000015,pano_000000_000015-50100,Pegasus,55.7163607,12.5830027,41.182,0,0,-62.14604,2020-04-16 10:24:07.000000,652351.631,1177173.741,5.145,NykoebingF-Sydmotorvejen,-1.25934,-0.08541
pano_000000_000016,pano_000000_000016-50100,Pegasus,55.7163142,12.5831410,41.051,0,0,-56.57528,2020-04-16 10:24:09.000000,652360.385,1177168.666,5.013,NykoebingF-Sydmotorvejen,-0.87212,0.44144
pano_000000_000017,pano_000000_000017-50100,Pegasus,55.7162604,12.5832703,40.926,0,0,-52.42730,2020-04-16 10:24:10.000000,652368.578,1177162.770,4.889,NykoebingF-Sydmotorvejen,-1.69865,0.86119
pano_000000_000018,pano_000000_000018-50100,Pegasus,55.7162022,12.5833928,40.778,0,0,-47.60001,2020-04-16 10:24:12.000000,652376.359,1177156.382,4.741,NykoebingF-Sydmotorvejen,-0.98529,0.64299
pano_000000_000019,pano_000000_000019-50100,Pegasus,55.7161376,12.5835051,40.635,0,0,-43.14491,2020-04-16 10:24:13.000000,652383.501,1177149.280,4.597,NykoebingF-Sydmotorvejen,-1.64784,0.59958
pano_000000_000020,pano_000000_000020-50100,Pegasus,55.7160694,12.5836097,40.506,0,0,-40.05941,2020-04-16 10:24:15.000000,652390.164,1177141.770,4.469,NykoebingF-Sydmotorvejen,-1.84514,-0.08005
pano_000000_000021,pano_000000_000021-50100,Pegasus,55.7159980,12.5837080,40.422,0,0,-36.92726,2020-04-16 10:24:16.000000,652396.441,1177133.894,4.385,NykoebingF-Sydmotorvejen,-1.97381,0.15756
pano_000000_000022,pano_000000_000022-50100,Pegasus,55.7159237,12.5837998,40.349,0,0,-33.73293,2020-04-16 10:24:17.000000,652402.310,1177125.687,4.311,NykoebingF-Sydmotorvejen,-1.26613,0.50633
pano_000000_000023,pano_000000_000023-50100,Pegasus,55.7158467,12.5838828,40.300,0,0,-30.49565,2020-04-16 10:24:19.000000,652407.624,1177117.178,4.263,NykoebingF-Sydmotorvejen,-1.75574,0.22665
pano_000000_000024,pano_000000_000024-50100,Pegasus,55.7157676,12.5839582,40.284,0,0,-28.07670,2020-04-16 10:24:20.000000,652412.471,1177108.425,4.247,NykoebingF-Sydmotorvejen,-1.99282,-0.75598
pano_000000_000025,pano_000000_000025-50100,Pegasus,55.7156876,12.5840322,40.311,0,0,-28.44683,2020-04-16 10:24:21.000000,652417.230,1177099.579,4.274,NykoebingF-Sydmotorvejen,-1.86951,-0.75148
pano_000000_000026,pano_000000_000026-50100,Pegasus,55.7156078,12.5841062,40.334,0,0,-27.53296,2020-04-16 10:24:22.000000,652421.984,1177090.750,4.297,NykoebingF-Sydmotorvejen,-0.70789,-0.77379
pano_000000_000027,pano_000000_000027-50100,Pegasus,55.7155266,12.5841773,40.335,0,0,-27.30080,2020-04-16 10:24:23.000000,652426.563,1177081.768,4.299,NykoebingF-Sydmotorvejen,-1.59533,-0.32067
pano_000000_000028,pano_000000_000028-50100,Pegasus,55.7154464,12.5842493,40.339,0,0,-27.84883,2020-04-16 10:24:24.000000,652431.198,1177072.891,4.302,NykoebingF-Sydmotorvejen,-0.95480,-0.30265
pano_000000_000029,pano_000000_000029-50100,Pegasus,55.7153665,12.5843228,40.323,0,0,-28.44082,2020-04-16 10:24:25.000000,652435.923,1177064.049,4.287,NykoebingF-Sydmotorvejen,-0.89438,0.31730
pano_000000_000030,pano_000000_000030-50100,Pegasus,55.7152870,12.5843973,40.300,0,0,-28.42927,2020-04-16 10:24:26.000000,652440.709,1177055.251,4.263,NykoebingF-Sydmotorvejen,-0.64220,-0.06044
pano_000000_000031,pano_000000_000031-50100,Pegasus,55.7152067,12.5844710,40.318,0,0,-27.99384,2020-04-16 10:24:27.000000,652445.452,1177046.370,4.282,NykoebingF-Sydmotorvejen,-1.01097,0.51952
pano_000000_000032,pano_000000_000032-50100,Pegasus,55.7151266,12.5845433,40.282,0,0,-27.49904,2020-04-16 10:24:28.000000,652450.103,1177037.512,4.245,NykoebingF-Sydmotorvejen,-1.14272,-0.50667
pano_000000_000033,pano_000000_000033-50100,Pegasus,55.7150460,12.5846147,40.304,0,0,-27.28705,2020-04-16 10:24:29.000000,652454.698,1177028.595,4.267,NykoebingF-Sydmotorvejen,-1.11705,-0.46882
pano_000000_000034,pano_000000_000034-50100,Pegasus,55.7149654,12.5846863,40.285,0,0,-27.37270,2020-04-16 10:24:30.000000,652459.304,1177019.669,4.249,NykoebingF-Sydmotorvejen,-1.19905,-0.58475
pano_000000_000035,pano_000000_000035-50100,Pegasus,55.7148851,12.5847586,40.317,0,0,-27.81264,2020-04-16 10:24:31.000000,652463.954,1177010.786,4.281,NykoebingF-Sydmotorvejen,-0.51406,-0.52824
pano_000000_000036,pano_000000_000036-50100,Pegasus,55.7148045,12.5848304,40.294,0,0,-27.57889,2020-04-16 10:24:31.000000,652468.577,1177001.872,4.258,NykoebingF-Sydmotorvejen,-1.69476,-0.41667
pano_000000_000037,pano_000000_000037-50100,Pegasus,55.7147241,12.5849023,40.341,0,0,-27.35480,2020-04-16 10:24:32.000000,652473.203,1176992.975,4.305,NykoebingF-Sydmotorvejen,-1.25058,-0.40821
pano_000000_000038,pano_000000_000038-50100,Pegasus,55.7146432,12.5849739,40.339,0,0,-27.55081,2020-04-16 10:24:33.000000,652477.815,1176984.014,4.303,NykoebingF-Sydmotorvejen,-1.66731,0.39357
pano_000000_000039,pano_000000_000039-50100,Pegasus,55.7145631,12.5850458,40.306,0,0,-27.54639,2020-04-16 10:24:34.000000,652482.441,1176975.155,4.270,NykoebingF-Sydmotorvejen,-1.21945,-0.38998
pano_000000_000040,pano_000000_000040-50100,Pegasus,55.7144825,12.5851185,40.307,0,0,-27.83828,2020-04-16 10:24:35.000000,652487.116,1176966.232,4.271,NykoebingF-Sydmotorvejen,-1.25193,-0.09697
pano_000000_000041,pano_000000_000041-50100,Pegasus,55.7144022,12.5851912,40.291,0,0,-27.69708,2020-04-16 10:24:35.000000,652491.791,1176957.352,4.255,NykoebingF-Sydmotorvejen,-1.20317,-0.43482
pano_000000_000042,pano_000000_000042-50100,Pegasus,55.7143219,12.5852637,40.320,0,0,-27.69746,2020-04-16 10:24:36.000000,652496.456,1176948.472,4.284,NykoebingF-Sydmotorvejen,-0.84208,-0.00486
pano_000000_000043,pano_000000_000043-50100,Pegasus,55.7142415,12.5853356,40.263,0,0,-27.89827,2020-04-16 10:24:37.000000,652501.081,1176939.574,4.227,NykoebingF-Sydmotorvejen,-1.87451,-0.62051
pano_000000_000044,pano_000000_000044-50100,Pegasus,55.7141610,12.5854091,40.307,0,0,-28.05388,2020-04-16 10:24:38.000000,652505.811,1176930.669,4.271,NykoebingF-Sydmotorvejen,-1.62621,-0.30048
pano_000000_000045,pano_000000_000045-50100,Pegasus,55.7140809,12.5854817,40.285,0,0,-27.85890,2020-04-16 10:24:39.000000,652510.479,1176921.807,4.250,NykoebingF-Sydmotorvejen,-2.40853,-0.36360
pano_000000_000046,pano_000000_000046-50100,Pegasus,55.7140005,12.5855545,40.306,0,0,-27.60335,2020-04-16 10:24:39.000000,652515.163,1176912.900,4.271,NykoebingF-Sydmotorvejen,-1.83055,-0.28179
pano_000000_000047,pano_000000_000047-50100,Pegasus,55.7139199,12.5856268,40.301,0,0,-27.66230,2020-04-16 10:24:40.000000,652519.817,1176903.992,4.266,NykoebingF-Sydmotorvejen,-1.85104,0.30070
pano_000000_000048,pano_000000_000048-50100,Pegasus,55.7138395,12.5856988,40.297,0,0,-27.63981,2020-04-16 10:24:41.000000,652524.448,1176895.091,4.262,NykoebingF-Sydmotorvejen,-2.08241,-0.24241
pano_000000_000049,pano_000000_000049-50100,Pegasus,55.7137591,12.5857711,40.285,0,0,-27.80852,2020-04-16 10:24:42.000000,652529.098,1176886.189,4.250,NykoebingF-Sydmotorvejen,-2.37420,-0.08715
pano_000000_000050,pano_000000_000050-50100,Pegasus,55.7136788,12.5858435,40.261,0,0,-27.85805,2020-04-16 10:24:42.000000,652533.759,1176877.304,4.227,NykoebingF-Sydmotorvejen,-2.44958,-0.11615
pano_000000_000051,pano_000000_000051-50100,Pegasus,55.7135986,12.5859169,40.257,0,0,-27.99780,2020-04-16 10:24:43.000000,652538.477,1176868.432,4.223,NykoebingF-Sydmotorvejen,-1.83001,-0.46661
pano_000000_000052,pano_000000_000052-50100,Pegasus,55.7135185,12.5859901,40.238,0,0,-27.95947,2020-04-16 10:24:44.000000,652543.189,1176859.577,4.204,NykoebingF-Sydmotorvejen,-1.45261,-0.69798
pano_000000_000053,pano_000000_000053-50100,Pegasus,55.7134380,12.5860633,40.281,0,0,-27.65616,2020-04-16 10:24:45.000000,652547.896,1176850.669,4.247,NykoebingF-Sydmotorvejen,-1.04609,-0.48610
pano_000000_000054,pano_000000_000054-50100,Pegasus,55.7133576,12.5861352,40.313,0,0,-27.42923,2020-04-16 10:24:45.000000,652552.525,1176841.766,4.278,NykoebingF-Sydmotorvejen,-1.32276,-0.13389
pano_000000_000055,pano_000000_000055-50100,Pegasus,55.7132765,12.5862061,40.275,0,0,-27.27016,2020-04-16 10:24:46.000000,652557.089,1176832.796,4.241,NykoebingF-Sydmotorvejen,-2.84136,0.11679
pano_000000_000056,pano_000000_000056-50100,Pegasus,55.7131959,12.5862771,40.319,0,0,-27.49017,2020-04-16 10:24:47.000000,652561.662,1176823.880,4.284,NykoebingF-Sydmotorvejen,-2.64839,0.03983
pano_000000_000057,pano_000000_000057-50100,Pegasus,55.7131154,12.5863501,40.317,0,0,-27.98023,2020-04-16 10:24:47.000000,652566.352,1176814.966,4.283,NykoebingF-Sydmotorvejen,-1.86325,-0.06709
pano_000000_000058,pano_000000_000058-50100,Pegasus,55.7130354,12.5864233,40.287,0,0,-28.10355,2020-04-16 10:24:48.000000,652571.061,1176806.114,4.253,NykoebingF-Sydmotorvejen,-1.83147,-0.65541
pano_000000_000059,pano_000000_000059-50100,Pegasus,55.7129549,12.5864964,40.379,0,0,-27.90002,2020-04-16 10:24:49.000000,652575.767,1176797.207,4.345,NykoebingF-Sydmotorvejen,-2.13333,0.56520
pano_000000_000060,pano_000000_000060-50100,Pegasus,55.7128744,12.5865690,40.349,0,0,-27.77659,2020-04-16 10:24:49.000000,652580.437,1176788.305,4.315,NykoebingF-Sydmotorvejen,-2.15959,0.18764
pano_000000_000061,pano_000000_000061-50100,Pegasus,55.7127939,12.5866412,40.334,0,0,-27.66816,2020-04-16 10:24:50.000000,652585.081,1176779.402,4.300,NykoebingF-Sydmotorvejen,-2.40653,-0.09774
pano_000000_000062,pano_000000_000062-50100,Pegasus,55.7127134,12.5867138,40.358,0,0,-27.72014,2020-04-16 10:24:51.000000,652589.755,1176770.490,4.324,NykoebingF-Sydmotorvejen,-1.97981,-0.21326
pano_000000_000063,pano_000000_000063-50100,Pegasus,55.7126329,12.5867865,40.346,0,0,-27.61440,2020-04-16 10:24:52.000000,652594.430,1176761.582,4.313,NykoebingF-Sydmotorvejen,-1.71487,0.17004
pano_000000_000064,pano_000000_000064-50100,Pegasus,55.7125518,12.5868567,40.291,0,0,-25.20721,2020-04-16 10:24:52.000000,652598.951,1176752.609,4.257,NykoebingF-Sydmotorvejen,-2.07156,0.36054
pano_000000_000065,pano_000000_000065-50100,Pegasus,55.7124688,12.5869201,40.330,0,0,-22.17691,2020-04-16 10:24:53.000000,652603.047,1176743.415,4.297,NykoebingF-Sydmotorvejen,-0.96271,-0.51142
pano_000000_000066,pano_000000_000066-50100,Pegasus,55.7123843,12.5869768,40.348,0,0,-21.75410,2020-04-16 10:24:54.000000,652606.723,1176734.057,4.314,NykoebingF-Sydmotorvejen,-1.62143,-0.16793
pano_000000_000067,pano_000000_000067-50100,Pegasus,55.7123003,12.5870352,40.375,0,0,-23.38126,2020-04-16 10:24:55.000000,652610.510,1176724.741,4.341,NykoebingF-Sydmotorvejen,-2.34225,-0.08431
pano_000000_000068,pano_000000_000068-50100,Pegasus,55.7122177,12.5870984,40.333,0,0,-25.17529,2020-04-16 10:24:55.000000,652614.592,1176715.602,4.300,NykoebingF-Sydmotorvejen,-2.01497,0.02186
pano_000000_000069,pano_000000_000069-50100,Pegasus,55.7121363,12.5871659,40.269,0,0,-26.98370,2020-04-16 10:24:56.000000,652618.943,1176706.581,4.235,NykoebingF-Sydmotorvejen,-2.36424,-0.03963
pano_000000_000070,pano_000000_000070-50100,Pegasus,55.7120558,12.5872383,40.224,0,0,-28.33217,2020-04-16 10:24:57.000000,652623.602,1176697.677,4.190,NykoebingF-Sydmotorvejen,-2.00652,-0.02317
pano_000000_000071,pano_000000_000071-50100,Pegasus,55.7119758,12.5873128,40.176,0,0,-28.32000,2020-04-16 10:24:58.000000,652628.392,1176688.832,4.142,NykoebingF-Sydmotorvejen,-1.51854,0.15714
pano_000000_000072,pano_000000_000072-50100,Pegasus,55.7118956,12.5873865,40.129,0,0,-27.84361,2020-04-16 10:24:58.000000,652633.130,1176679.951,4.095,NykoebingF-Sydmotorvejen,-1.44164,-0.06558
pano_000000_000073,pano_000000_000073-50100,Pegasus,55.7118152,12.5874590,40.091,0,0,-27.62036,2020-04-16 10:24:59.000000,652637.795,1176671.057,4.058,NykoebingF-Sydmotorvejen,-1.07530,0.38880
pano_000000_000074,pano_000000_000074-50100,Pegasus,55.7117350,12.5875310,40.093,0,0,-27.75173,2020-04-16 10:25:00.000000,652642.433,1176662.182,4.060,NykoebingF-Sydmotorvejen,-1.09478,-0.06913
pano_000000_000075,pano_000000_000075-50100,Pegasus,55.7116546,12.5876033,40.016,0,0,-27.89242,2020-04-16 10:25:01.000000,652647.084,1176653.292,3.983,NykoebingF-Sydmotorvejen,-1.69815,0.15610
pano_000000_000076,pano_000000_000076-50100,Pegasus,55.7115747,12.5876761,39.992,0,0,-28.01740,2020-04-16 10:25:01.000000,652651.765,1176644.446,3.959,NykoebingF-Sydmotorvejen,-1.41986,-0.09539
pano_000000_000077,pano_000000_000077-50100,Pegasus,55.7114943,12.5877498,39.971,0,0,-28.14578,2020-04-16 10:25:02.000000,652656.504,1176635.560,3.938,NykoebingF-Sydmotorvejen,-1.23001,-0.02259
pano_000000_000078,pano_000000_000078-50100,Pegasus,55.7114144,12.5878229,39.935,0,0,-27.97373,2020-04-16 10:25:03.000000,652661.211,1176626.715,3.902,NykoebingF-Sydmotorvejen,-1.38302,-0.26004
pano_000000_000079,pano_000000_000079-50100,Pegasus,55.7113336,12.5878958,39.901,0,0,-27.62397,2020-04-16 10:25:04.000000,652665.897,1176617.780,3.869,NykoebingF-Sydmotorvejen,-1.84649,-0.03388
pano_000000_000080,pano_000000_000080-50100,Pegasus,55.7112532,12.5879680,39.907,0,0,-28.29401,2020-04-16 10:25:04.000000,652670.549,1176608.883,3.875,NykoebingF-Sydmotorvejen,-1.97719,-0.25735
pano_000000_000081,pano_000000_000081-50100,Pegasus,55.7111734,12.5880431,39.894,0,0,-29.51379,2020-04-16 10:25:05.000000,652675.371,1176600.056,3.861,NykoebingF-Sydmotorvejen,-1.96693,-0.37857
pano_000000_000082,pano_000000_000082-50100,Pegasus,55.7110951,12.5881209,39.881,0,0,-30.71132,2020-04-16 10:25:06.000000,652680.371,1176591.396,3.848,NykoebingF-Sydmotorvejen,-1.80445,-0.33173
pano_000000_000083,pano_000000_000083-50100,Pegasus,55.7110171,12.5882010,39.917,0,0,-30.51036,2020-04-16 10:25:06.000000,652685.511,1176582.774,3.885,NykoebingF-Sydmotorvejen,-0.95057,-0.29343
pano_000000_000084,pano_000000_000084-50100,Pegasus,55.7109385,12.5882797,39.890,0,0,-30.01534,2020-04-16 10:25:07.000000,652690.563,1176574.084,3.858,NykoebingF-Sydmotorvejen,-1.37294,-0.04277
pano_000000_000085,pano_000000_000085-50100,Pegasus,55.7108596,12.5883573,39.883,0,0,-29.67506,2020-04-16 10:25:08.000000,652695.546,1176565.354,3.851,NykoebingF-Sydmotorvejen,-1.56046,-0.18516
pano_000000_000086,pano_000000_000086-50100,Pegasus,55.7107803,12.5884348,39.878,0,0,-29.49695,2020-04-16 10:25:08.000000,652700.520,1176556.587,3.846,NykoebingF-Sydmotorvejen,-1.22390,-0.22668
pano_000000_000087,pano_000000_000087-50100,Pegasus,55.7107012,12.5885116,39.853,0,0,-29.67995,2020-04-16 10:25:09.000000,652705.458,1176547.833,3.821,NykoebingF-Sydmotorvejen,-1.61621,-0.18015
pano_000001_000000,pano_000001_000000-50100,Pegasus,55.7105036,12.5888640,39.940,0,0,150.65123,2020-04-16 10:28:55.000000,652727.874,1176526.106,3.909,NykoebingF-Sydmotorvejen,-1.75374,-0.36597
pano_000001_000001,pano_000001_000001-50100,Pegasus,55.7105435,12.5888251,39.948,0,0,150.68458,2020-04-16 10:28:55.000000,652725.376,1176530.525,3.917,NykoebingF-Sydmotorvejen,-1.27125,-0.21518
pano_000001_000002,pano_000001_000002-50100,Pegasus,55.7106226,12.5887488,39.935,0,0,150.34571,2020-04-16 10:28:56.000000,652720.472,1176539.269,3.904,NykoebingF-Sydmotorvejen,-1.68915,-0.29067
pano_000001_000003,pano_000001_000003-50100,Pegasus,55.7107015,12.5886714,39.937,0,0,150.29196,2020-04-16 10:28:57.000000,652715.502,1176547.993,3.906,NykoebingF-Sydmotorvejen,-1.61057,-0.22712
pano_000001_000004,pano_000001_000004-50100,Pegasus,55.7107804,12.5885938,39.943,0,0,150.20817,2020-04-16 10:28:58.000000,652710.514,1176556.717,3.912,NykoebingF-Sydmotorvejen,-1.46766,-0.01192
pano_000001_000005,pano_000001_000005-50100,Pegasus,55.7108592,12.5885168,39.925,0,0,150.15878,2020-04-16 10:28:59.000000,652705.571,1176565.434,3.894,NykoebingF-Sydmotorvejen,-2.12629,-0.40180
pano_000001_000006,pano_000001_000006-50100,Pegasus,55.7109377,12.5884386,39.953,0,0,149.95710,2020-04-16 10:28:59.000000,652700.551,1176574.113,3.921,NykoebingF-Sydmotorvejen,-1.24022,-0.15774
pano_000001_000007,pano_000001_000007-50100,Pegasus,55.7110165,12.5883605,39.950,0,0,149.85667,2020-04-16 10:29:00.000000,652695.535,1176582.831,3.918,NykoebingF-Sydmotorvejen,-1.75434,-0.28321
pano_000001_000008,pano_000001_000008-50100,Pegasus,55.7110953,12.5882820,39.987,0,0,150.24163,2020-04-16 10:29:01.000000,652690.492,1176591.536,3.955,NykoebingF-Sydmotorvejen,-0.93022,0.17528
pano_000001_000009,pano_000001_000009-50100,Pegasus,55.7111742,12.5882052,39.975,0,0,150.66389,2020-04-16 10:29:02.000000,652685.561,1176600.264,3.943,NykoebingF-Sydmotorvejen,-1.25425,-0.35107
pano_000001_000010,pano_000001_000010-50100,Pegasus,55.7112537,12.5881300,39.975,0,0,151.71034,2020-04-16 10:29:03.000000,652680.730,1176609.061,3.943,NykoebingF-Sydmotorvejen,-1.31632,-0.42590
pano_000001_000011,pano_000001_000011-50100,Pegasus,55.7113337,12.5880567,39.986,0,0,151.98064,2020-04-16 10:29:04.000000,652676.015,1176617.910,3.954,NykoebingF-Sydmotorvejen,-1.14048,-0.51443
pano_000001_000012,pano_000001_000012-50100,Pegasus,55.7114137,12.5879838,40.000,0,0,151.64819,2020-04-16 10:29:05.000000,652671.320,1176626.763,3.967,NykoebingF-Sydmotorvejen,-1.54280,-0.59666
pano_000001_000013,pano_000001_000013-50100,Pegasus,55.7114936,12.5879096,40.018,0,0,151.53369,2020-04-16 10:29:05.000000,652666.551,1176635.599,3.985,NykoebingF-Sydmotorvejen,-1.76524,-0.46139
pano_000001_000014,pano_000001_000014-50100,Pegasus,55.7115735,12.5878354,40.052,0,0,151.98310,2020-04-16 10:29:06.000000,652661.781,1176644.441,4.020,NykoebingF-Sydmotorvejen,-1.01157,-0.80191
pano_000001_000015,pano_000001_000015-50100,Pegasus,55.7116537,12.5877625,40.071,0,0,151.97592,2020-04-16 10:29:07.000000,652657.088,1176653.310,4.038,NykoebingF-Sydmotorvejen,-1.38089,-0.79712
pano_000001_000016,pano_000001_000016-50100,Pegasus,55.7117338,12.5876891,40.135,0,0,152.08200,2020-04-16 10:29:08.000000,652652.370,1176662.174,4.103,NykoebingF-Sydmotorvejen,-1.03196,-0.43642
pano_000001_000017,pano_000001_000017-50100,Pegasus,55.7118140,12.5876169,40.113,0,0,152.29601,2020-04-16 10:29:09.000000,652647.722,1176671.049,4.080,NykoebingF-Sydmotorvejen,-1.44982,-0.62372
pano_000001_000018,pano_000001_000018-50100,Pegasus,55.7118944,12.5875448,40.188,0,0,152.52236,2020-04-16 10:29:09.000000,652643.082,1176679.941,4.155,NykoebingF-Sydmotorvejen,-1.38312,-0.41745
pano_000001_000019,pano_000001_000019-50100,Pegasus,55.7119750,12.5874730,40.252,0,0,152.91099,2020-04-16 10:29:10.000000,652638.465,1176688.866,4.219,NykoebingF-Sydmotorvejen,-1.00344,-0.14155
pano_000001_000020,pano_000001_000020-50100,Pegasus,55.7120565,12.5874040,40.245,0,0,154.18971,2020-04-16 10:29:11.000000,652634.018,1176697.880,4.212,NykoebingF-Sydmotorvejen,-2.21679,-0.55254
pano_000001_000021,pano_000001_000021-50100,Pegasus,55.7121389,12.5873383,40.296,0,0,155.99673,2020-04-16 10:29:12.000000,652629.774,1176707.001,4.263,NykoebingF-Sydmotorvejen,-2.44937,-0.38699
pano_000001_000022,pano_000001_000022-50100,Pegasus,55.7122217,12.5872776,40.361,0,0,158.04382,2020-04-16 10:29:12.000000,652625.850,1176716.176,4.328,NykoebingF-Sydmotorvejen,-1.77883,-1.38655
pano_000001_000023,pano_000001_000023-50100,Pegasus,55.7123062,12.5872188,40.506,0,0,157.74341,2020-04-16 10:29:13.000000,652622.041,1176725.545,4.473,NykoebingF-Sydmotorvejen,-0.35413,0.40992
pano_000001_000024,pano_000001_000024-50100,Pegasus,55.7123895,12.5871587,40.451,0,0,155.18210,2020-04-16 10:29:14.000000,652618.150,1176734.767,4.418,NykoebingF-Sydmotorvejen,-1.76348,0.77421
pano_000001_000025,pano_000001_000025-50100,Pegasus,55.7124711,12.5870929,40.345,0,0,153.61232,2020-04-16 10:29:15.000000,652613.907,1176743.799,4.312,NykoebingF-Sydmotorvejen,-3.21339,-0.20229
pano_000001_000026,pano_000001_000026-50100,Pegasus,55.7125517,12.5870223,40.331,0,0,152.70626,2020-04-16 10:29:15.000000,652609.361,1176752.719,4.297,NykoebingF-Sydmotorvejen,-1.66514,-0.09221
pano_000001_000027,pano_000001_000027-50100,Pegasus,55.7126320,12.5869511,40.333,0,0,152.60191,2020-04-16 10:29:16.000000,652604.778,1176761.610,4.300,NykoebingF-Sydmotorvejen,-1.89220,-0.64901
pano_000001_000028,pano_000001_000028-50100,Pegasus,55.7127124,12.5868791,40.384,0,0,152.23753,2020-04-16 10:29:17.000000,652600.143,1176770.509,4.350,NykoebingF-Sydmotorvejen,-1.79033,-0.43208
pano_000001_000029,pano_000001_000029-50100,Pegasus,55.7127930,12.5868068,40.361,0,0,152.21788,2020-04-16 10:29:18.000000,652595.491,1176779.428,4.327,NykoebingF-Sydmotorvejen,-2.40367,-0.35524
pano_000001_000030,pano_000001_000030-50100,Pegasus,55.7128730,12.5867343,40.387,0,0,152.28079,2020-04-16 10:29:18.000000,652590.827,1176788.279,4.354,NykoebingF-Sydmotorvejen,-1.80083,-0.34431
pano_000001_000031,pano_000001_000031-50100,Pegasus,55.7129533,12.5866618,40.403,0,0,152.03560,2020-04-16 10:29:19.000000,652586.162,1176797.162,4.369,NykoebingF-Sydmotorvejen,-1.72508,-0.13192
pano_000001_000032,pano_000001_000032-50100,Pegasus,55.7130339,12.5865891,40.361,0,0,152.06810,2020-04-16 10:29:20.000000,652581.489,1176806.073,4.327,NykoebingF-Sydmotorvejen,-2.95793,0.15821
pano_000001_000033,pano_000001_000033-50100,Pegasus,55.7131140,12.5865161,40.385,0,0,152.35158,2020-04-16 10:29:21.000000,652576.790,1176814.944,4.351,NykoebingF-Sydmotorvejen,-1.96470,-0.29385
pano_000001_000034,pano_000001_000034-50100,Pegasus,55.7131946,12.5864441,40.387,0,0,152.37178,2020-04-16 10:29:21.000000,652572.158,1176823.857,4.353,NykoebingF-Sydmotorvejen,-2.19470,-0.13470
pano_000001_000035,pano_000001_000035-50100,Pegasus,55.7132752,12.5863718,40.361,0,0,152.25888,2020-04-16 10:29:22.000000,652567.503,1176832.777,4.327,NykoebingF-Sydmotorvejen,-2.35922,0.00993
pano_000001_000036,pano_000001_000036-50100,Pegasus,55.7133553,12.5862995,40.350,0,0,152.30721,2020-04-16 10:29:23.000000,652562.852,1176841.644,4.316,NykoebingF-Sydmotorvejen,-2.10348,-0.57626
pano_000001_000037,pano_000001_000037-50100,Pegasus,55.7134361,12.5862275,40.361,0,0,152.40726,2020-04-16 10:29:23.000000,652558.222,1176850.582,4.326,NykoebingF-Sydmotorvejen,-2.81285,-0.13086
pano_000001_000038,pano_000001_000038-50100,Pegasus,55.7135163,12.5861557,40.333,0,0,152.38463,2020-04-16 10:29:24.000000,652553.601,1176859.459,4.298,NykoebingF-Sydmotorvejen,-2.70013,-0.42338
pano_000001_000039,pano_000001_000039-50100,Pegasus,55.7135970,12.5860836,40.353,0,0,152.79754,2020-04-16 10:29:25.000000,652548.961,1176868.384,4.319,NykoebingF-Sydmotorvejen,-2.28419,0.21649
pano_000001_000040,pano_000001_000040-50100,Pegasus,55.7136776,12.5860126,40.325,0,0,152.46059,2020-04-16 10:29:25.000000,652544.388,1176877.301,4.290,NykoebingF-Sydmotorvejen,-2.77378,0.05308
pano_000001_000041,pano_000001_000041-50100,Pegasus,55.7137575,12.5859406,40.297,0,0,152.37724,2020-04-16 10:29:26.000000,652539.757,1176886.148,4.262,NykoebingF-Sydmotorvejen,-1.93173,-0.81616
pano_000001_000042,pano_000001_000042-50100,Pegasus,55.7138381,12.5858674,40.350,0,0,151.88716,2020-04-16 10:29:27.000000,652535.045,1176895.065,4.315,NykoebingF-Sydmotorvejen,-1.74618,-0.20027
pano_000001_000043,pano_000001_000043-50100,Pegasus,55.7139182,12.5857945,40.332,0,0,152.16484,2020-04-16 10:29:28.000000,652530.357,1176903.921,4.297,NykoebingF-Sydmotorvejen,-2.38212,-0.31610
pano_000001_000044,pano_000001_000044-50100,Pegasus,55.7139984,12.5857226,40.353,0,0,152.19663,2020-04-16 10:29:28.000000,652525.728,1176912.804,4.318,NykoebingF-Sydmotorvejen,-2.94085,-0.23760
pano_000001_000045,pano_000001_000045-50100,Pegasus,55.7140788,12.5856498,40.357,0,0,152.11453,2020-04-16 10:29:29.000000,652521.050,1176921.698,4.322,NykoebingF-Sydmotorvejen,-2.75663,-0.32443
pano_000001_000046,pano_000001_000046-50100,Pegasus,55.7141588,12.5855773,40.346,0,0,152.02390,2020-04-16 10:29:30.000000,652516.386,1176930.550,4.311,NykoebingF-Sydmotorvejen,-2.89571,-0.29767
pano_000001_000047,pano_000001_000047-50100,Pegasus,55.7142388,12.5855042,40.360,0,0,152.25066,2020-04-16 10:29:30.000000,652511.680,1176939.398,4.324,NykoebingF-Sydmotorvejen,-1.92139,-0.41084
pano_000001_000048,pano_000001_000048-50100,Pegasus,55.7143196,12.5854324,40.348,0,0,152.46320,2020-04-16 10:29:31.000000,652507.060,1176948.339,4.312,NykoebingF-Sydmotorvejen,-2.78081,-0.09316
pano_000001_000049,pano_000001_000049-50100,Pegasus,55.7143998,12.5853604,40.361,0,0,152.38557,2020-04-16 10:29:32.000000,652502.431,1176957.210,4.326,NykoebingF-Sydmotorvejen,-2.14095,-0.15203
pano_000001_000050,pano_000001_000050-50100,Pegasus,55.7144800,12.5852883,40.347,0,0,152.08023,2020-04-16 10:29:32.000000,652497.788,1176966.084,4.312,NykoebingF-Sydmotorvejen,-2.23928,-0.00332
pano_000001_000051,pano_000001_000051-50100,Pegasus,55.7145602,12.5852156,40.313,0,0,152.17212,2020-04-16 10:29:33.000000,652493.114,1176974.963,4.278,NykoebingF-Sydmotorvejen,-2.41859,-0.26708
pano_000001_000052,pano_000001_000052-50100,Pegasus,55.7146404,12.5851430,40.328,0,0,152.00862,2020-04-16 10:29:34.000000,652488.443,1176983.831,4.292,NykoebingF-Sydmotorvejen,-2.47022,-0.07096
pano_000001_000053,pano_000001_000053-50100,Pegasus,55.7147208,12.5850699,40.320,0,0,151.85449,2020-04-16 10:29:34.000000,652483.740,1176992.726,4.285,NykoebingF-Sydmotorvejen,-2.79495,0.01686
pano_000001_000054,pano_000001_000054-50100,Pegasus,55.7148007,12.5849966,40.330,0,0,151.83143,2020-04-16 10:29:35.000000,652479.025,1177001.568,4.294,NykoebingF-Sydmotorvejen,-2.79056,-0.29359
pano_000001_000055,pano_000001_000055-50100,Pegasus,55.7148808,12.5849233,40.318,0,0,152.11260,2020-04-16 10:29:36.000000,652474.315,1177010.436,4.282,NykoebingF-Sydmotorvejen,-2.59010,0.02831
pano_000001_000056,pano_000001_000056-50100,Pegasus,55.7149612,12.5848509,40.298,0,0,152.25883,2020-04-16 10:29:37.000000,652469.656,1177019.329,4.262,NykoebingF-Sydmotorvejen,-2.98946,-0.46227
pano_000001_000057,pano_000001_000057-50100,Pegasus,55.7150416,12.5847787,40.347,0,0,152.44272,2020-04-16 10:29:37.000000,652465.011,1177028.223,4.311,NykoebingF-Sydmotorvejen,-2.76665,-0.22712
pano_000001_000058,pano_000001_000058-50100,Pegasus,55.7151219,12.5847068,40.355,0,0,152.49150,2020-04-16 10:29:38.000000,652460.386,1177037.115,4.319,NykoebingF-Sydmotorvejen,-2.49831,-0.20562
pano_000001_000059,pano_000001_000059-50100,Pegasus,55.7152025,12.5846346,40.343,0,0,152.41097,2020-04-16 10:29:39.000000,652455.740,1177046.033,4.307,NykoebingF-Sydmotorvejen,-2.27136,-0.28803
pano_000001_000060,pano_000001_000060-50100,Pegasus,55.7152833,12.5845626,40.362,0,0,152.58498,2020-04-16 10:29:40.000000,652451.104,1177054.968,4.326,NykoebingF-Sydmotorvejen,-2.32864,-0.25702
pano_000001_000061,pano_000001_000061-50100,Pegasus,55.7153639,12.5844917,40.376,0,0,153.08458,2020-04-16 10:29:41.000000,652446.543,1177063.884,4.339,NykoebingF-Sydmotorvejen,-2.43120,-0.38838
pano_000001_000062,pano_000001_000062-50100,Pegasus,55.7154452,12.5844222,40.416,0,0,154.43373,2020-04-16 10:29:41.000000,652442.065,1177072.885,4.379,NykoebingF-Sydmotorvejen,-1.49508,-0.64411
pano_000001_000063,pano_000001_000063-50100,Pegasus,55.7155275,12.5843565,40.477,0,0,155.81158,2020-04-16 10:29:42.000000,652437.824,1177081.997,4.441,NykoebingF-Sydmotorvejen,-1.46122,-0.51007
pano_000001_000064,pano_000001_000064-50100,Pegasus,55.7156110,12.5842951,40.457,0,0,157.79433,2020-04-16 10:29:43.000000,652433.857,1177091.252,4.420,NykoebingF-Sydmotorvejen,-1.94530,0.04052
pano_000001_000065,pano_000001_000065-50100,Pegasus,55.7156953,12.5842386,40.488,0,0,160.09621,2020-04-16 10:29:44.000000,652430.188,1177100.588,4.451,NykoebingF-Sydmotorvejen,-0.63363,-0.26072
pano_000001_000066,pano_000001_000066-50100,Pegasus,55.7157812,12.5841888,40.520,0,0,162.10134,2020-04-16 10:29:44.000000,652426.943,1177110.114,4.483,NykoebingF-Sydmotorvejen,-1.22199,-0.31830
pano_000001_000067,pano_000001_000067-50100,Pegasus,55.7158678,12.5841440,40.571,0,0,163.81495,2020-04-16 10:29:45.000000,652424.014,1177119.726,4.534,NykoebingF-Sydmotorvejen,-1.63262,-0.43891
pano_000001_000068,pano_000001_000068-50100,Pegasus,55.7159546,12.5841018,40.627,0,0,164.08315,2020-04-16 10:29:46.000000,652421.243,1177129.359,4.590,NykoebingF-Sydmotorvejen,-1.42339,-0.54730
pano_000001_000069,pano_000001_000069-50100,Pegasus,55.7160417,12.5840607,40.681,0,0,164.68798,2020-04-16 10:29:47.000000,652418.547,1177139.022,4.644,NykoebingF-Sydmotorvejen,-1.28279,-0.52428
pano_000001_000070,pano_000001_000070-50100,Pegasus,55.7161282,12.5840201,40.714,0,0,162.18698,2020-04-16 10:29:48.000000,652415.880,1177148.623,4.678,NykoebingF-Sydmotorvejen,-2.22809,-0.74955
pano_000001_000071,pano_000001_000071-50100,Pegasus,55.7162128,12.5839667,40.784,0,0,155.84733,2020-04-16 10:29:49.000000,652412.413,1177158.004,4.747,NykoebingF-Sydmotorvejen,-2.42620,-0.31229
pano_000001_000072,pano_000001_000072-50100,Pegasus,55.7162941,12.5838997,40.828,0,0,154.64693,2020-04-16 10:29:50.000000,652408.091,1177167.006,4.791,NykoebingF-Sydmotorvejen,-0.96372,-0.76441
pano_000001_000073,pano_000001_000073-50100,Pegasus,55.7163761,12.5838339,40.904,0,0,153.11167,2020-04-16 10:29:51.000000,652403.848,1177176.080,4.867,NykoebingF-Sydmotorvejen,-0.87772,-0.20950
pano_000001_000074,pano_000001_000074-50100,Pegasus,55.7164520,12.5837547,41.012,0,0,142.17022,2020-04-16 10:29:52.000000,652398.769,1177184.468,4.975,NykoebingF-Sydmotorvejen,-1.41274,-2.23734
pano_000001_000075,pano_000001_000075-50100,Pegasus,55.7165197,12.5836510,41.336,0,0,136.03523,2020-04-16 10:29:53.000000,652392.158,1177191.923,5.299,NykoebingF-Sydmotorvejen,-0.77344,-1.49395
pano_000001_000076,pano_000001_000076-50100,Pegasus,55.7165893,12.5835468,41.622,0,0,147.83156,2020-04-16 10:29:54.000000,652385.515,1177199.599,5.585,NykoebingF-Sydmotorvejen,0.46157,-1.22096
pano_000001_000077,pano_000001_000077-50100,Pegasus,55.7166785,12.5834996,41.803,0,0,-178.12915,2020-04-16 10:29:55.000000,652382.430,1177209.497,5.765,NykoebingF-Sydmotorvejen,0.35188,-0.21390
pano_000001_000078,pano_000001_000078-50100,Pegasus,55.7167677,12.5835398,41.665,0,0,-159.13611,2020-04-16 10:29:57.000000,652384.839,1177219.454,5.627,NykoebingF-Sydmotorvejen,0.64499,0.55093
pano_000001_000079,pano_000001_000079-50100,Pegasus,55.7168522,12.5835934,41.494,0,0,-164.47279,2020-04-16 10:29:58.000000,652388.091,1177228.901,5.457,NykoebingF-Sydmotorvejen,0.96385,2.37461
pano_000002_000000,pano_000002_000000-50100,Pegasus,55.7182781,12.5832435,40.602,0,0,-8.96687,2020-04-16 10:31:05.000000,652364.196,1177387.384,4.564,NykoebingF-Sydmotorvejen,0.00311,-0.18467
pano_000002_000001,pano_000002_000001-50100,Pegasus,55.7182639,12.5832472,40.606,0,0,-9.23963,2020-04-16 10:31:05.000000,652364.449,1177385.802,4.568,NykoebingF-Sydmotorvejen,0.11708,0.08314
pano_000002_000002,pano_000002_000002-50100,Pegasus,55.7181750,12.5832725,40.598,0,0,-10.19911,2020-04-16 10:31:06.000000,652366.159,1177375.926,4.560,NykoebingF-Sydmotorvejen,0.39393,0.04819
pano_000002_000003,pano_000002_000003-50100,Pegasus,55.7180863,12.5832992,40.597,0,0,-10.14040,2020-04-16 10:31:07.000000,652367.953,1177366.072,4.559,NykoebingF-Sydmotorvejen,0.39551,-0.14693
pano_000002_000004,pano_000002_000004-50100,Pegasus,55.7179970,12.5833240,40.591,0,0,-8.86565,2020-04-16 10:31:08.000000,652369.629,1177356.152,4.553,NykoebingF-Sydmotorvejen,1.01021,0.08829
pano_000002_000005,pano_000002_000005-50100,Pegasus,55.7179079,12.5833470,40.588,0,0,-8.74199,2020-04-16 10:31:09.000000,652371.194,1177346.249,4.551,NykoebingF-Sydmotorvejen,0.40419,-0.24103
pano_000002_000006,pano_000002_000006-50100,Pegasus,55.7178185,12.5833687,40.570,0,0,-9.15513,2020-04-16 10:31:11.000000,652372.678,1177336.314,4.532,NykoebingF-Sydmotorvejen,-0.01760,-0.26987
pano_000002_000007,pano_000002_000007-50100,Pegasus,55.7177294,12.5833926,40.550,0,0,-9.44554,2020-04-16 10:31:12.000000,652374.302,1177326.414,4.512,NykoebingF-Sydmotorvejen,0.01874,-0.41617
pano_000002_000008,pano_000002_000008-50100,Pegasus,55.7176404,12.5834168,40.573,0,0,-9.39365,2020-04-16 10:31:13.000000,652375.943,1177316.521,4.536,NykoebingF-Sydmotorvejen,0.21665,0.05489
pano_000002_000009,pano_000002_000009-50100,Pegasus,55.7175515,12.5834414,40.565,0,0,-9.40053,2020-04-16 10:31:14.000000,652377.604,1177306.643,4.527,NykoebingF-Sydmotorvejen,0.89389,-0.23018
pano_000002_000010,pano_000002_000010-50100,Pegasus,55.7174620,12.5834648,40.604,0,0,-9.16319,2020-04-16 10:31:15.000000,652379.196,1177296.698,4.566,NykoebingF-Sydmotorvejen,0.36247,0.37103
pano_000002_000011,pano_000002_000011-50100,Pegasus,55.7173734,12.5834886,40.601,0,0,-9.64170,2020-04-16 10:31:17.000000,652380.813,1177286.849,4.564,NykoebingF-Sydmotorvejen,0.06989,-0.19406
pano_000002_000012,pano_000002_000012-50100,Pegasus,55.7172843,12.5835141,40.628,0,0,-10.11212,2020-04-16 10:31:19.000000,652382.531,1177276.945,4.590,NykoebingF-Sydmotorvejen,-0.06406,1.25909
pano_000002_000013,pano_000002_000013-50100,Pegasus,55.7171954,12.5835377,40.552,0,0,-8.51135,2020-04-16 10:31:55.000000,652384.132,1177267.069,4.515,NykoebingF-Sydmotorvejen,-0.81501,-1.36649
pano_000002_000014,pano_000002_000014-50100,Pegasus,55.7171059,12.5835579,40.688,0,0,-6.66754,2020-04-16 10:31:56.000000,652385.525,1177257.118,4.651,NykoebingF-Sydmotorvejen,-0.31146,-1.37886
pano_000002_000015,pano_000002_000015-50100,Pegasus,55.7170148,12.5835603,40.919,0,0,6.08870,2020-04-16 10:31:58.000000,652385.795,1177246.976,4.882,NykoebingF-Sydmotorvejen,-0.72308,-1.72269
pano_000002_000016,pano_000002_000016-50100,Pegasus,55.7169258,12.5835226,41.163,0,0,20.29161,2020-04-16 10:31:59.000000,652383.543,1177237.038,5.126,NykoebingF-Sydmotorvejen,-0.41792,-1.80593
pano_000002_000017,pano_000002_000017-50100,Pegasus,55.7168432,12.5834549,41.424,0,0,28.89911,2020-04-16 10:32:01.000000,652379.404,1177227.801,5.386,NykoebingF-Sydmotorvejen,-0.18093,-1.90536
pano_000002_000018,pano_000002_000018-50100,Pegasus,55.7167672,12.5833661,41.735,0,0,38.71755,2020-04-16 10:32:02.000000,652373.920,1177219.268,5.697,NykoebingF-Sydmotorvejen,0.20752,-1.23855
pano_000002_000019,pano_000002_000019-50100,Pegasus,55.7167050,12.5832444,41.825,0,0,58.12788,2020-04-16 10:32:04.000000,652366.357,1177212.250,5.788,NykoebingF-Sydmotorvejen,0.97670,1.13334
pano_000002_000020,pano_000002_000020-50100,Pegasus,55.7166639,12.5831006,41.547,0,0,67.95469,2020-04-16 10:32:05.000000,652357.377,1177207.569,5.509,NykoebingF-Sydmotorvejen,1.24704,0.81276
pano_000002_000021,pano_000002_000021-50100,Pegasus,55.7166388,12.5829451,41.331,0,0,78.85281,2020-04-16 10:32:06.000000,652347.638,1177204.655,5.293,NykoebingF-Sydmotorvejen,0.16848,0.40831
pano_000002_000022,pano_000002_000022-50100,Pegasus,55.7166278,12.5827854,41.195,0,0,85.74225,2020-04-16 10:32:07.000000,652337.616,1177203.305,5.157,NykoebingF-Sydmotorvejen,0.25472,-0.12174
pano_000002_000023,pano_000002_000023-50100,Pegasus,55.7166250,12.5826255,41.122,0,0,89.06985,2020-04-16 10:32:08.000000,652327.568,1177202.878,5.084,NykoebingF-Sydmotorvejen,-0.38089,-1.04730
pano_000002_000024,pano_000002_000024-50100,Pegasus,55.7166261,12.5824654,41.190,0,0,90.88562,2020-04-16 10:32:09.000000,652317.506,1177202.880,5.151,NykoebingF-Sydmotorvejen,-0.37067,-1.18394
pano_000002_000025,pano_000002_000025-50100,Pegasus,55.7166297,12.5823060,41.308,0,0,91.99131,2020-04-16 10:32:10.000000,652307.484,1177203.154,5.269,NykoebingF-Sydmotorvejen,-0.47412,-1.15506
pano_000002_000026,pano_000002_000026-50100,Pegasus,55.7166338,12.5821467,41.450,0,0,91.29888,2020-04-16 10:32:11.000000,652297.466,1177203.494,5.411,NykoebingF-Sydmotorvejen,-1.09533,-1.23054
pano_000002_000027,pano_000002_000027-50100,Pegasus,55.7166364,12.5819869,41.579,0,0,90.71754,2020-04-16 10:32:12.000000,652287.423,1177203.666,5.540,NykoebingF-Sydmotorvejen,-0.89636,-1.05283
pano_000002_000028,pano_000002_000028-50100,Pegasus,55.7166386,12.5818273,41.708,0,0,90.57118,2020-04-16 10:32:13.000000,652277.391,1177203.784,5.669,NykoebingF-Sydmotorvejen,-0.77040,-1.13525
pano_000002_000029,pano_000002_000029-50100,Pegasus,55.7166406,12.5816673,41.835,0,0,90.88594,2020-04-16 10:32:13.000000,652267.331,1177203.896,5.796,NykoebingF-Sydmotorvejen,-0.64360,-1.09839
pano_000002_000030,pano_000002_000030-50100,Pegasus,55.7166436,12.5815078,41.983,0,0,91.25607,2020-04-16 10:32:14.000000,652257.302,1177204.110,5.943,NykoebingF-Sydmotorvejen,-1.02190,-0.96347
pano_000002_000031,pano_000002_000031-50100,Pegasus,55.7166465,12.5813482,42.137,0,0,90.85423,2020-04-16 10:32:15.000000,652247.272,1177204.312,6.098,NykoebingF-Sydmotorvejen,-0.91706,-0.87245
pano_000002_000032,pano_000002_000032-50100,Pegasus,55.7166489,12.5811883,42.262,0,0,90.58535,2020-04-16 10:32:16.000000,652237.218,1177204.450,6.222,NykoebingF-Sydmotorvejen,-1.23958,-1.02310
pano_000002_000033,pano_000002_000033-50100,Pegasus,55.7166517,12.5810289,42.385,0,0,92.22976,2020-04-16 10:32:17.000000,652227.196,1177204.642,6.345,NykoebingF-Sydmotorvejen,-0.64971,-0.97594
pano_000002_000034,pano_000002_000034-50100,Pegasus,55.7166578,12.5808693,42.499,0,0,94.20195,2020-04-16 10:32:17.000000,652217.156,1177205.206,6.459,NykoebingF-Sydmotorvejen,-1.09513,-1.04986
pano_000002_000035,pano_000002_000035-50100,Pegasus,55.7166662,12.5807102,42.624,0,0,93.88402,2020-04-16 10:32:18.000000,652207.151,1177206.019,6.584,NykoebingF-Sydmotorvejen,-1.26925,-1.07175
pano_000002_000036,pano_000002_000036-50100,Pegasus,55.7166713,12.5805513,42.762,0,0,89.67862,2020-04-16 10:32:19.000000,652197.158,1177206.473,6.721,NykoebingF-Sydmotorvejen,-2.58722,-0.93783
pano_000002_000037,pano_000002_000037-50100,Pegasus,55.7166695,12.5803920,42.896,0,0,87.34250,2020-04-16 10:32:20.000000,652187.148,1177206.150,6.855,NykoebingF-Sydmotorvejen,-1.24485,-1.11880
pano_000002_000038,pano_000002_000038-50100,Pegasus,55.7166676,12.5802323,43.037,0,0,89.96738,2020-04-16 10:32:21.000000,652177.113,1177205.819,6.996,NykoebingF-Sydmotorvejen,-0.63161,-1.12267
pano_000002_000039,pano_000002_000039-50100,Pegasus,55.7166704,12.5800723,43.183,0,0,91.67449,2020-04-16 10:32:22.000000,652167.055,1177206.006,7.142,NykoebingF-Sydmotorvejen,-0.77051,-1.21883
pano_000002_000040,pano_000002_000040-50100,Pegasus,55.7166735,12.5799131,43.349,0,0,90.85314,2020-04-16 10:32:22.000000,652157.048,1177206.238,7.308,NykoebingF-Sydmotorvejen,0.19600,-1.12960
pano_000002_000041,pano_000002_000041-50100,Pegasus,55.7166747,12.5797535,43.508,0,0,89.86416,2020-04-16 10:32:23.000000,652147.011,1177206.243,7.467,NykoebingF-Sydmotorvejen,1.53145,-1.06150
pano_000002_000042,pano_000002_000042-50100,Pegasus,55.7166749,12.5795940,43.665,0,0,89.04613,2020-04-16 10:32:24.000000,652136.987,1177206.153,7.624,NykoebingF-Sydmotorvejen,1.65581,-0.76717
pano_000002_000043,pano_000002_000043-50100,Pegasus,55.7166733,12.5794352,43.794,0,0,87.02259,2020-04-16 10:32:25.000000,652127.015,1177205.856,7.753,NykoebingF-Sydmotorvejen,1.48124,-0.99365
pano_000002_000044,pano_000002_000044-50100,Pegasus,55.7166681,12.5792765,43.927,0,0,84.54608,2020-04-16 10:32:26.000000,652117.045,1177205.157,7.885,NykoebingF-Sydmotorvejen,1.36689,-1.04106
pano_000002_000045,pano_000002_000045-50100,Pegasus,55.7166594,12.5791184,44.052,0,0,82.59285,2020-04-16 10:32:27.000000,652107.119,1177204.063,8.010,NykoebingF-Sydmotorvejen,0.72854,-0.76227
pano_000003_000000,pano_000003_000000-50100,Pegasus,55.7166220,12.5789109,44.143,0,0,-96.93520,2020-04-16 10:33:57.000000,652094.133,1177199.749,8.101,NykoebingF-Sydmotorvejen,-1.13444,0.03342
pano_000003_000001,pano_000003_000001-50100,Pegasus,55.7166281,12.5790109,44.080,0,0,-96.70874,2020-04-16 10:33:58.000000,652100.408,1177200.503,8.038,NykoebingF-Sydmotorvejen,-1.11483,0.27013
pano_000003_000002,pano_000003_000002-50100,Pegasus,55.7166366,12.5791701,43.952,0,0,-94.91382,2020-04-16 10:33:59.000000,652110.404,1177201.570,7.911,NykoebingF-Sydmotorvejen,-1.03414,0.54507
pano_000003_000003,pano_000003_000003-50100,Pegasus,55.7166415,12.5793297,43.793,0,0,-92.50934,2020-04-16 10:34:00.000000,652120.425,1177202.231,7.751,NykoebingF-Sydmotorvejen,-1.07696,0.41726
pano_000003_000004,pano_000003_000004-50100,Pegasus,55.7166428,12.5794897,43.659,0,0,-90.46843,2020-04-16 10:34:01.000000,652130.479,1177202.494,7.618,NykoebingF-Sydmotorvejen,-1.16413,0.54015
pano_000003_000005,pano_000003_000005-50100,Pegasus,55.7166417,12.5796501,43.528,0,0,-89.66782,2020-04-16 10:34:01.000000,652140.559,1177202.496,7.487,NykoebingF-Sydmotorvejen,-1.28999,0.73982
pano_000003_000006,pano_000003_000006-50100,Pegasus,55.7166395,12.5798095,43.394,0,0,-89.38548,2020-04-16 10:34:02.000000,652150.578,1177202.373,7.353,NykoebingF-Sydmotorvejen,-1.48103,0.61104
pano_000003_000007,pano_000003_000007-50100,Pegasus,55.7166375,12.5799687,43.276,0,0,-89.25106,2020-04-16 10:34:03.000000,652160.588,1177202.262,7.235,NykoebingF-Sydmotorvejen,-1.35526,0.61354
pano_000003_000008,pano_000003_000008-50100,Pegasus,55.7166346,12.5801288,43.135,0,0,-88.06369,2020-04-16 10:34:04.000000,652170.653,1177202.067,7.095,NykoebingF-Sydmotorvejen,-1.03036,0.87268
pano_000003_000009,pano_000003_000009-50100,Pegasus,55.7166289,12.5802886,43.004,0,0,-85.93946,2020-04-16 10:34:05.000000,652180.700,1177201.550,6.963,NykoebingF-Sydmotorvejen,-1.09629,0.86475
pano_000003_000010,pano_000003_000010-50100,Pegasus,55.7166213,12.5804470,42.853,0,0,-87.79350,2020-04-16 10:34:06.000000,652190.667,1177200.818,6.812,NykoebingF-Sydmotorvejen,-2.02377,0.54292
pano_000003_000011,pano_000003_000011-50100,Pegasus,55.7166195,12.5806060,42.736,0,0,-91.04238,2020-04-16 10:34:07.000000,652200.663,1177200.747,6.696,NykoebingF-Sydmotorvejen,-1.26516,0.77184
pano_000003_000012,pano_000003_000012-50100,Pegasus,55.7166204,12.5807658,42.615,0,0,-91.31287,2020-04-16 10:34:08.000000,652210.704,1177200.965,6.575,NykoebingF-Sydmotorvejen,-1.30406,0.63156
pano_000003_000013,pano_000003_000013-50100,Pegasus,55.7166205,12.5809261,42.500,0,0,-89.92959,2020-04-16 10:34:09.000000,652220.775,1177201.099,6.460,NykoebingF-Sydmotorvejen,-0.91883,0.69538
pano_000003_000014,pano_000003_000014-50100,Pegasus,55.7166184,12.5810857,42.384,0,0,-89.09267,2020-04-16 10:34:10.000000,652230.811,1177200.981,6.344,NykoebingF-Sydmotorvejen,-1.06522,0.23158
pano_000003_000015,pano_000003_000015-50100,Pegasus,55.7166156,12.5812461,42.242,0,0,-89.12473,2020-04-16 10:34:11.000000,652240.894,1177200.787,6.202,NykoebingF-Sydmotorvejen,-1.45856,0.81012
pano_000003_000016,pano_000003_000016-50100,Pegasus,55.7166133,12.5814055,42.087,0,0,-89.30003,2020-04-16 10:34:12.000000,652250.916,1177200.651,6.047,NykoebingF-Sydmotorvejen,-1.19219,0.86163
pano_000003_000017,pano_000003_000017-50100,Pegasus,55.7166110,12.5815650,41.933,0,0,-88.82684,2020-04-16 10:34:12.000000,652260.939,1177200.519,5.894,NykoebingF-Sydmotorvejen,-0.64088,0.80516
pano_000003_000018,pano_000003_000018-50100,Pegasus,55.7166074,12.5817242,41.793,0,0,-88.16009,2020-04-16 10:34:13.000000,652270.950,1177200.243,5.754,NykoebingF-Sydmotorvejen,-0.76664,0.48773
pano_000003_000019,pano_000003_000019-50100,Pegasus,55.7166029,12.5818838,41.663,0,0,-87.60174,2020-04-16 10:34:14.000000,652280.987,1177199.859,5.624,NykoebingF-Sydmotorvejen,-0.64696,0.63478
pano_000003_000020,pano_000003_000020-50100,Pegasus,55.7165981,12.5820432,41.535,0,0,-88.13359,2020-04-16 10:34:15.000000,652291.010,1177199.446,5.496,NykoebingF-Sydmotorvejen,-1.12316,0.53252
pano_000003_000021,pano_000003_000021-50100,Pegasus,55.7165945,12.5822028,41.395,0,0,-88.54621,2020-04-16 10:34:16.000000,652301.045,1177199.162,5.357,NykoebingF-Sydmotorvejen,-0.84222,0.87204
pano_000003_000022,pano_000003_000022-50100,Pegasus,55.7165905,12.5823624,41.280,0,0,-87.37259,2020-04-16 10:34:17.000000,652311.080,1177198.836,5.242,NykoebingF-Sydmotorvejen,-0.91215,0.52365
pano_000003_000023,pano_000003_000023-50100,Pegasus,55.7165843,12.5825218,41.226,0,0,-85.15012,2020-04-16 10:34:18.000000,652321.106,1177198.263,5.188,NykoebingF-Sydmotorvejen,0.61562,0.28591
pano_000003_000024,pano_000003_000024-50100,Pegasus,55.7165755,12.5826802,41.252,0,0,-85.95664,2020-04-16 10:34:19.000000,652331.072,1177197.409,5.214,NykoebingF-Sydmotorvejen,1.21121,-0.00392
pano_000003_000025,pano_000003_000025-50100,Pegasus,55.7165743,12.5828368,41.353,0,0,-95.79991,2020-04-16 10:34:21.000000,652340.915,1177197.394,5.315,NykoebingF-Sydmotorvejen,1.24386,-0.02155
pano_000003_000026,pano_000003_000026-50100,Pegasus,55.7165890,12.5829920,41.462,0,0,-103.24560,2020-04-16 10:34:29.000000,652350.652,1177199.147,5.424,NykoebingF-Sydmotorvejen,0.92027,-1.22276
pano_000003_000027,pano_000003_000027-50100,Pegasus,55.7166089,12.5831472,41.565,0,0,-104.51397,2020-04-16 10:34:31.000000,652360.378,1177201.479,5.527,NykoebingF-Sydmotorvejen,-0.64563,-1.39093
pano_000003_000028,pano_000003_000028-50100,Pegasus,55.7166383,12.5832938,41.749,0,0,-119.89810,2020-04-16 10:34:32.000000,652369.549,1177204.860,5.712,NykoebingF-Sydmotorvejen,-1.85891,-1.78213
pano_000003_000029,pano_000003_000029-50100,Pegasus,55.7166916,12.5834196,41.865,0,0,-135.58315,2020-04-16 10:34:34.000000,652377.388,1177210.888,5.827,NykoebingF-Sydmotorvejen,-0.48017,0.53524
pano_000003_000030,pano_000003_000030-50100,Pegasus,55.7167604,12.5835172,41.674,0,0,-150.32376,2020-04-16 10:34:35.000000,652383.428,1177218.627,5.636,NykoebingF-Sydmotorvejen,-0.82310,0.55474
pano_000003_000031,pano_000003_000031-50100,Pegasus,55.7168417,12.5835808,41.500,0,0,-163.22331,2020-04-16 10:34:36.000000,652387.317,1177227.721,5.463,NykoebingF-Sydmotorvejen,0.64846,1.55468
pano_000003_000032,pano_000003_000032-50100,Pegasus,55.7169284,12.5836155,41.214,0,0,-174.23012,2020-04-16 10:34:37.000000,652389.382,1177237.399,5.176,NykoebingF-Sydmotorvejen,-0.78758,1.80124
pano_000003_000033,pano_000003_000033-50100,Pegasus,55.7170170,12.5836208,40.928,0,0,176.54119,2020-04-16 10:34:38.000000,652389.593,1177247.267,4.891,NykoebingF-Sydmotorvejen,-0.97622,1.30743
pano_000003_000034,pano_000003_000034-50100,Pegasus,55.7171061,12.5836076,40.701,0,0,172.29698,2020-04-16 10:34:39.000000,652388.647,1177257.178,4.664,NykoebingF-Sydmotorvejen,-1.39686,0.56055
pano_000003_000035,pano_000003_000035-50100,Pegasus,55.7171952,12.5835859,40.551,0,0,170.63780,2020-04-16 10:34:40.000000,652387.166,1177267.083,4.513,NykoebingF-Sydmotorvejen,-1.63619,0.21568
pano_000003_000036,pano_000003_000036-50100,Pegasus,55.7172842,12.5835614,40.575,0,0,170.70727,2020-04-16 10:34:41.000000,652385.506,1177276.967,4.538,NykoebingF-Sydmotorvejen,-0.38850,-0.67997
pano_000003_000037,pano_000003_000037-50100,Pegasus,55.7173736,12.5835378,40.597,0,0,170.78847,2020-04-16 10:34:42.000000,652383.900,1177286.903,4.559,NykoebingF-Sydmotorvejen,-0.69303,0.35821
pano_000003_000038,pano_000003_000038-50100,Pegasus,55.7174626,12.5835153,40.563,0,0,171.60461,2020-04-16 10:34:43.000000,652382.371,1177296.796,4.526,NykoebingF-Sydmotorvejen,-1.09409,-0.29002
pano_000003_000039,pano_000003_000039-50100,Pegasus,55.7175516,12.5834922,40.545,0,0,170.48869,2020-04-16 10:34:44.000000,652380.797,1177306.691,4.507,NykoebingF-Sydmotorvejen,-0.59314,-0.31646
pano_000003_000040,pano_000003_000040-50100,Pegasus,55.7176407,12.5834677,40.549,0,0,170.59263,2020-04-16 10:34:45.000000,652379.137,1177316.591,4.512,NykoebingF-Sydmotorvejen,-0.77225,-0.14917
pano_000003_000041,pano_000003_000041-50100,Pegasus,55.7177299,12.5834428,40.566,0,0,170.32223,2020-04-16 10:34:46.000000,652377.453,1177326.498,4.529,NykoebingF-Sydmotorvejen,-0.30134,0.11523
pano_000003_000042,pano_000003_000042-50100,Pegasus,55.7178188,12.5834181,40.575,0,0,170.35473,2020-04-16 10:34:47.000000,652375.781,1177336.386,4.538,NykoebingF-Sydmotorvejen,-0.40167,-0.25938
pano_000003_000043,pano_000003_000043-50100,Pegasus,55.7179076,12.5833931,40.574,0,0,170.03548,2020-04-16 10:34:48.000000,652374.091,1177346.248,4.536,NykoebingF-Sydmotorvejen,-0.21177,-0.35189
pano_000003_000044,pano_000003_000044-50100,Pegasus,55.7179966,12.5833670,40.570,0,0,169.94829,2020-04-16 10:34:49.000000,652372.333,1177356.133,4.533,NykoebingF-Sydmotorvejen,-0.33600,-0.17902
pano_000004_000000,pano_000004_000000-50100,Pegasus,55.7172149,12.5835308,40.516,0,0,-9.67658,2020-04-16 10:38:18.000000,652383.672,1177269.235,4.478,NykoebingF-Sydmotorvejen,-1.20310,-0.66501
pano_000004_000001,pano_000004_000001-50100,Pegasus,55.7171699,12.5835437,40.572,0,0,-9.73570,2020-04-16 10:38:18.000000,652384.546,1177264.232,4.534,NykoebingF-Sydmotorvejen,-0.67162,-0.88437
pano_000004_000002,pano_000004_000002-50100,Pegasus,55.7170809,12.5835683,40.712,0,0,-8.13896,2020-04-16 10:38:19.000000,652386.207,1177254.348,4.674,NykoebingF-Sydmotorvejen,-0.20240,-1.57498
pano_000004_000003,pano_000004_000003-50100,Pegasus,55.7169900,12.5835770,40.987,0,0,2.14284,2020-04-16 10:38:21.000000,652386.877,1177244.234,4.950,NykoebingF-Sydmotorvejen,-0.68891,-1.74552
pano_000004_000004,pano_000004_000004-50100,Pegasus,55.7168998,12.5835525,41.253,0,0,16.09461,2020-04-16 10:38:22.000000,652385.457,1177234.169,5.215,NykoebingF-Sydmotorvejen,-0.21197,-1.59118
pano_000004_000005,pano_000004_000005-50100,Pegasus,55.7168162,12.5834870,41.519,0,0,31.41753,2020-04-16 10:38:23.000000,652381.458,1177224.810,5.481,NykoebingF-Sydmotorvejen,-0.34604,-1.35901
pano_000004_000006,pano_000004_000006-50100,Pegasus,55.7167452,12.5833870,41.772,0,0,43.07989,2020-04-16 10:38:26.000000,652375.266,1177216.834,5.734,NykoebingF-Sydmotorvejen,-0.68239,-0.95559
pano_000004_000007,pano_000004_000007-50100,Pegasus,55.7166848,12.5832659,41.809,0,0,48.15147,2020-04-16 10:39:05.000000,652367.733,1177210.013,5.771,NykoebingF-Sydmotorvejen,-0.85356,1.20766
pano_000004_000008,pano_000004_000008-50100,Pegasus,55.7166142,12.5831861,41.591,0,0,7.51581,2020-04-16 10:39:07.000000,652362.814,1177202.103,5.553,NykoebingF-Sydmotorvejen,-1.56940,0.56380
pano_000004_000009,pano_000004_000009-50100,Pegasus,55.7165362,12.5832300,41.479,0,0,-41.87117,2020-04-16 10:39:09.000000,652365.677,1177193.444,5.441,NykoebingF-Sydmotorvejen,-1.66384,0.24529
pano_000004_000010,pano_000004_000010-50100,Pegasus,55.7164731,12.5833430,41.391,0,0,-45.44164,2020-04-16 10:39:10.000000,652372.866,1177186.503,5.353,NykoebingF-Sydmotorvejen,-1.34535,0.37461
pano_000004_000011,pano_000004_000011-50100,Pegasus,55.7164071,12.5834527,41.281,0,0,-42.41492,2020-04-16 10:39:12.000000,652379.846,1177179.245,5.244,NykoebingF-Sydmotorvejen,-1.34378,0.30602
pano_000004_000012,pano_000004_000012-50100,Pegasus,55.7163388,12.5835571,41.169,0,0,-40.96044,2020-04-16 10:39:14.000000,652386.498,1177171.722,5.132,NykoebingF-Sydmotorvejen,-1.14124,-0.23204
pano_000004_000013,pano_000004_000013-50100,Pegasus,55.7162681,12.5836575,41.093,0,0,-37.46122,2020-04-16 10:39:15.000000,652392.904,1177163.924,5.055,NykoebingF-Sydmotorvejen,-1.25771,0.12454
pano_000004_000014,pano_000004_000014-50100,Pegasus,55.7161936,12.5837496,40.977,0,0,-32.97697,2020-04-16 10:39:16.000000,652398.789,1177155.696,4.939,NykoebingF-Sydmotorvejen,-0.77502,0.27355
pano_000004_000015,pano_000004_000015-50100,Pegasus,55.7161148,12.5838300,40.890,0,0,-28.00693,2020-04-16 10:39:17.000000,652403.951,1177146.982,4.853,NykoebingF-Sydmotorvejen,-1.04196,0.81191
pano_000004_000016,pano_000004_000016-50100,Pegasus,55.7160327,12.5838975,40.797,0,0,-23.39648,2020-04-16 10:39:18.000000,652408.302,1177137.895,4.760,NykoebingF-Sydmotorvejen,-1.70629,-0.20361
pano_000004_000017,pano_000004_000017-50100,Pegasus,55.7159482,12.5839557,40.693,0,0,-20.95447,2020-04-16 10:39:19.000000,652412.075,1177128.538,4.656,NykoebingF-Sydmotorvejen,-1.67953,0.47780
pano_000004_000018,pano_000004_000018-50100,Pegasus,55.7158636,12.5840100,40.528,0,0,-20.30589,2020-04-16 10:39:20.000000,652415.601,1177119.155,4.491,NykoebingF-Sydmotorvejen,-1.61701,-0.17786
pano_000004_000019,pano_000004_000019-50100,Pegasus,55.7157787,12.5840631,40.473,0,0,-19.70042,2020-04-16 10:39:20.000000,652419.047,1177109.745,4.436,NykoebingF-Sydmotorvejen,-0.99177,-0.53055
pano_000004_000020,pano_000004_000020-50100,Pegasus,55.7156937,12.5841154,40.460,0,0,-20.40471,2020-04-16 10:39:21.000000,652422.449,1177100.325,4.423,NykoebingF-Sydmotorvejen,-0.59483,-0.69198
pano_000004_000021,pano_000004_000021-50100,Pegasus,55.7156094,12.5841712,40.443,0,0,-22.72247,2020-04-16 10:39:22.000000,652426.068,1177090.983,4.407,NykoebingF-Sydmotorvejen,-1.06719,-0.51402
pano_000004_000022,pano_000004_000022-50100,Pegasus,55.7155263,12.5842331,40.448,0,0,-24.65887,2020-04-16 10:39:23.000000,652430.073,1177081.772,4.411,NykoebingF-Sydmotorvejen,-1.17973,-0.35618
pano_000004_000023,pano_000004_000023-50100,Pegasus,55.7154443,12.5842983,40.424,0,0,-25.60646,2020-04-16 10:39:23.000000,652434.282,1177072.695,4.387,NykoebingF-Sydmotorvejen,-1.66888,-0.30875
pano_000005_000000,pano_000005_000000-50100,Pegasus,55.7145097,12.5852072,40.425,0,0,152.31554,2020-04-16 10:41:47.000000,652492.654,1176969.332,4.389,NykoebingF-Sydmotorvejen,-0.83637,-0.20511
pano_000005_000001,pano_000005_000001-50100,Pegasus,55.7145629,12.5851593,40.421,0,0,152.32793,2020-04-16 10:41:47.000000,652489.570,1176975.220,4.385,NykoebingF-Sydmotorvejen,-0.80237,-0.41934
pano_000005_000002,pano_000005_000002-50100,Pegasus,55.7146433,12.5850872,40.437,0,0,152.32176,2020-04-16 10:41:48.000000,652484.933,1176984.119,4.401,NykoebingF-Sydmotorvejen,-1.25772,-0.33489
pano_000005_000003,pano_000005_000003-50100,Pegasus,55.7147241,12.5850149,40.431,0,0,152.33924,2020-04-16 10:41:48.000000,652480.283,1176993.053,4.395,NykoebingF-Sydmotorvejen,-1.50744,-0.19026
pano_000005_000004,pano_000005_000004-50100,Pegasus,55.7148046,12.5849418,40.433,0,0,152.24036,2020-04-16 10:41:49.000000,652475.576,1177001.961,4.397,NykoebingF-Sydmotorvejen,-0.69101,0.03180
pano_000005_000005,pano_000005_000005-50100,Pegasus,55.7148851,12.5848695,40.415,0,0,152.37948,2020-04-16 10:41:50.000000,652470.924,1177010.865,4.379,NykoebingF-Sydmotorvejen,-1.09299,0.10388
pano_000005_000006,pano_000005_000006-50100,Pegasus,55.7149654,12.5847973,40.406,0,0,152.51322,2020-04-16 10:41:50.000000,652466.281,1177019.757,4.370,NykoebingF-Sydmotorvejen,-0.81000,-0.23130
pano_000005_000007,pano_000005_000007-50100,Pegasus,55.7150462,12.5847249,40.436,0,0,152.46536,2020-04-16 10:41:51.000000,652461.623,1177028.697,4.400,NykoebingF-Sydmotorvejen,-0.60632,-0.07899
pano_000005_000008,pano_000005_000008-50100,Pegasus,55.7151267,12.5846527,40.446,0,0,152.41071,2020-04-16 10:41:52.000000,652456.980,1177037.600,4.410,NykoebingF-Sydmotorvejen,-0.44099,0.14691
pano_000005_000009,pano_000005_000009-50100,Pegasus,55.7152073,12.5845804,40.436,0,0,152.34693,2020-04-16 10:41:52.000000,652452.328,1177046.518,4.400,NykoebingF-Sydmotorvejen,-0.57764,-0.09362
pano_000005_000010,pano_000005_000010-50100,Pegasus,55.7152875,12.5845080,40.459,0,0,152.29426,2020-04-16 10:41:53.000000,652447.667,1177055.400,4.422,NykoebingF-Sydmotorvejen,-0.34009,0.12827
pano_000005_000011,pano_000005_000011-50100,Pegasus,55.7153679,12.5844360,40.489,0,0,152.92174,2020-04-16 10:41:54.000000,652443.035,1177064.296,4.452,NykoebingF-Sydmotorvejen,-0.24733,0.31753
pano_000005_000012,pano_000005_000012-50100,Pegasus,55.7154490,12.5843667,40.503,0,0,154.42596,2020-04-16 10:41:55.000000,652438.569,1177073.267,4.467,NykoebingF-Sydmotorvejen,0.06301,0.26240
pano_000005_000013,pano_000005_000013-50100,Pegasus,55.7155313,12.5843011,40.547,0,0,156.18717,2020-04-16 10:41:56.000000,652434.338,1177082.382,4.510,NykoebingF-Sydmotorvejen,0.34568,0.34830
pano_000005_000014,pano_000005_000014-50100,Pegasus,55.7156149,12.5842411,40.531,0,0,158.43043,2020-04-16 10:41:57.000000,652430.458,1177091.646,4.494,NykoebingF-Sydmotorvejen,-0.19786,0.37769
pano_000005_000015,pano_000005_000015-50100,Pegasus,55.7156999,12.5841876,40.521,0,0,161.01168,2020-04-16 10:41:59.000000,652426.982,1177101.071,4.484,NykoebingF-Sydmotorvejen,-0.08421,-0.01611
pano_000005_000016,pano_000005_000016-50100,Pegasus,55.7157855,12.5841382,40.564,0,0,161.67656,2020-04-16 10:42:02.000000,652423.760,1177110.557,4.527,NykoebingF-Sydmotorvejen,-0.44355,-0.45100
pano_000005_000017,pano_000005_000017-50100,Pegasus,55.7158715,12.5840934,40.613,0,0,162.82532,2020-04-16 10:42:20.000000,652420.831,1177120.099,4.576,NykoebingF-Sydmotorvejen,-0.94618,-1.26980
pano_000005_000018,pano_000005_000018-50100,Pegasus,55.7159592,12.5840530,40.688,0,0,166.57866,2020-04-16 10:42:22.000000,652418.172,1177129.837,4.651,NykoebingF-Sydmotorvejen,-1.48754,-0.39485
pano_000005_000019,pano_000005_000019-50100,Pegasus,55.7160467,12.5840184,40.716,0,0,164.83951,2020-04-16 10:42:24.000000,652415.881,1177139.543,4.679,NykoebingF-Sydmotorvejen,-1.40605,-0.79028
pano_000005_000020,pano_000005_000020-50100,Pegasus,55.7161324,12.5839728,40.763,0,0,160.05391,2020-04-16 10:42:26.000000,652412.901,1177149.059,4.726,NykoebingF-Sydmotorvejen,-1.31770,-0.58456
pano_000005_000021,pano_000005_000021-50100,Pegasus,55.7162155,12.5839147,40.838,0,0,154.21488,2020-04-16 10:42:28.000000,652409.137,1177158.267,4.801,NykoebingF-Sydmotorvejen,-1.45180,-0.23657
pano_000005_000022,pano_000005_000022-50100,Pegasus,55.7162947,12.5838409,40.859,0,0,148.84449,2020-04-16 10:42:29.000000,652404.393,1177167.028,4.822,NykoebingF-Sydmotorvejen,-0.62929,-0.24826
pano_000005_000023,pano_000005_000023-50100,Pegasus,55.7163689,12.5837547,40.915,0,0,142.62951,2020-04-16 10:42:30.000000,652398.880,1177175.220,4.878,NykoebingF-Sydmotorvejen,-0.82620,-1.18748
pano_000005_000024,pano_000005_000024-50100,Pegasus,55.7164384,12.5836566,41.107,0,0,138.06545,2020-04-16 10:42:32.000000,652392.621,1177182.878,5.070,NykoebingF-Sydmotorvejen,-0.08839,-2.26517
pano_000005_000025,pano_000005_000025-50100,Pegasus,55.7165026,12.5835463,41.347,0,0,132.74901,2020-04-16 10:42:33.000000,652385.599,1177189.949,5.310,NykoebingF-Sydmotorvejen,0.95752,-1.80255
